stop_id,stop_code,stop_name,stop_desc,stop_lat,stop_lon,zone_id,stop_url
390,10390,19th Avenue & Holloway St, ,37.72119,-122.475096, , 
3016,13016,3rd St & 4th St  , ,37.772618,-122.389786, , 
3018,13018,Bacon St & San Bruno Ave   , ,37.727739,-122.40324, , 
3019,13019,Bacon St & San Bruno Ave  , ,37.727645,-122.403269, , 
3020,13020,Bacon St & Somerset St  , ,37.72667,-122.40746, , 
3021,13021,Bacon St & Somerset St  , ,37.72654,-122.40766, , 
3023,13023,Baker Beach Parking Lot SW, ,37.790249,-122.482263, , 
3025,13025,Battery St & Broadway  , ,37.798311,-122.401093, , 
3030,13030,Battery St & Jackson St  , ,37.79686,-122.40077, , 
3031,13031,Bay St & Midway St  , ,37.806094,-122.409161, , 
3072,13072,Broderick St & Bay St  , ,37.801541,-122.444798, , 
3074,13074,Broderick St & Beach St  , ,37.803415,-122.445176, , 
3075,13075,Broderick St & Francisco St  , ,37.800622,-122.444603, , 
3076,13076,Broderick St & Jefferson St  , ,37.804343,-122.44536, , 
3077,13077,Broderick St & North Point St , ,37.802478,-122.444982, , 
3082,13082,Broadway & Grant Ave  , ,37.797831,-122.406345, , 
3084,13084,Broadway & Montgomery St  , ,37.798134,-122.40396, , 
3085,13085,Broadway & Steiner St  , ,37.794131,-122.436442, , 
3086,13086,Broadway & Steiner St  , ,37.794056,-122.436278, , 
3087,13087,Broadway & Stockton St  , ,37.797591,-122.408294, , 
3089,13089,Beale St & Mission St   , ,37.791939,-122.396879, , 
3092,13092,Beach St & Mason St  , ,37.807407,-122.414125, , 
3093,13093,Beach St & Polk St   , ,37.806375,-122.423195, , 
3095,13095,Beach St & Stockton St  , ,37.807841,-122.41081, , 
3103,13103,3rd St & 20th St  , ,37.76079,-122.38846, , 
3104,13104,3rd St & 20th St  , ,37.76059,-122.3887, , 
3107,13107,3rd St & 23rd St  , ,37.75569,-122.3879, , 
3108,13108,3rd St & 23rd St  , ,37.75506,-122.3881, , 
3113,13113,3rd St & Bayview St  , ,37.7322,-122.391731, , 
3114,13114,3rd St & Brannan St   , ,37.779285,-122.393185, , 
3115,13115,3rd St & Carroll Ave   , ,37.72567,-122.3943, , 
3116,13116,3rd St & Carroll Ave   , ,37.7253,-122.3942, , 
3123,13123,3rd St & Evans Ave  , ,37.74244,-122.38815, , 
3124,13124,3rd St & Folsom St   , ,37.784204,-122.399326, , 
3127,13127,3rd St & Hudson Ave   , ,37.74012,-122.3887, , 
3129,13129,3rd St & Innes Ave   , ,37.73932,-122.38926, , 
3134,13134,3rd St & La Salle Ave   , ,37.737213,-122.389803, , 
3135,13135,3rd St & Kirkwood Ave, ,37.737927,-122.389619, , 
3136,13136,3rd St & Stevenson St, ,37.786373,-122.40211, , 
3141,13141,3rd St & Palou Ave   , ,37.734091,-122.390928, , 
3143,13143,3rd St & Oakdale Ave, ,37.734787,-122.390721, , 
3144,13144,3rd St & Bryant St, ,37.781651,-122.396198, , 
3145,13145,3rd St & Revere Ave   , ,37.73225,-122.39146, , 
3146,13146,3rd St & Salinas Ave  , ,37.720861,-122.396459, , 
3149,13149,3rd St & Van Dyke Ave   , ,37.729238,-122.392593, , 
3150,13150,3rd St & Williams Ave  , ,37.729166,-122.392776, , 
3153,13153,4th St & 3rd St   , ,37.772966,-122.389694, , 
3156,13156,4th St & Brannan St   , ,37.778305,-122.396602, , 
3158,13158,4th St & Folsom St   , ,37.781804,-122.401012, , 
3159,13159,4th St & Howard St   , ,37.783036,-122.402548, , 
3160,13160,4th St & Mission St   , ,37.784259,-122.404117, , 
3161,13161,4th St & Market St   , ,37.785527,-122.405675, , 
3164,13164,4TH ST & TOWNSEND ST, ,37.776894,-122.394895, , 
3188,13188,1697 7th Ave  , ,37.756597,-122.463741, , 
3189,13189,1697 7th Ave, ,37.756767,-122.46357, , 
3191,13191,7th St & Brannan St   , ,37.773266,-122.403367, , 
3192,13192,7th St & Folsom St   , ,37.776864,-122.407904, , 
3193,13193,7th St & Harrison St   , ,37.77573,-122.40646, , 
3194,13194,7th St & Howard St   , ,37.777935,-122.409222, , 
3195,13195,7th St & Mission St   , ,37.779327,-122.411032, , 
3196,13196,7th St & Market St   , ,37.780309,-122.412395, , 
3197,13197,7th St & Townsend St   , ,37.772034,-122.401821, , 
3203,13203,8th St & Brannan St   , ,37.771179,-122.405386, , 
3204,13204,8th St & Bryant St   , ,37.772536,-122.407127, , 
3205,13205,8th St & Folsom St   , ,37.774767,-122.409922, , 
3206,13206,8th St & Harrison St   , ,37.773536,-122.408376, , 
3208,13208,8th St & Mission St   , ,37.77724,-122.413027, , 
3209,13209,8th St & Market St   , ,37.778498,-122.414597, , 
3214,13214,9th Ave & Judah St  , ,37.762093,-122.46608, , 
3215,13215,9th Ave & Judah St  , ,37.76204,-122.466241, , 
3216,13216,9th Ave & Kirkham St  , ,37.760407,-122.466149, , 
3217,13217,9th Ave & Kirkham St  , ,37.760237,-122.465954, , 
3218,13218,9th Ave & Lawton St  , ,37.758533,-122.466022, , 
3229,13229,9th St & Avenue H  , ,37.825196,-122.370063, , 
3235,13235,11th St & Bryant St   , ,37.769807,-122.4113, , 
3238,13238,11th St & Harrison St   , ,37.770691,-122.412526, , 
3239,13239,11th St & Harrison St   , ,37.770557,-122.412492, , 
3240,13240,11th St & Howard St   , ,37.77333,-122.41573, , 
3241,13241,11th St & Howard St   , ,37.77283,-122.41538, , 
3243,13243,11th St & Mission St   , ,37.774038,-122.416891, , 
3244,13244,11th St & Market St   , ,37.7755,-122.41852, , 
3245,13245,11th St & Market St   , ,37.775368,-122.418575, , 
3266,13266,15th Ave & Taraval St  , ,37.743124,-122.471297, , 
3267,13267,15th Ave & Taraval St  , ,37.743069,-122.471405, , 
3281,13281,16th St & Bryant St  , ,37.765658,-122.410294, , 
3282,13282,16th St & Bryant St  , ,37.765595,-122.410408, , 
3283,13283,16th St & Church St  , ,37.764579,-122.428523, , 
3284,13284,16th St & Dolores St  , ,37.764731,-122.426156, , 
3285,13285,16th St & Dolores St  , ,37.764575,-122.426579, , 
3286,13286,16th St & Guerrero St  , ,37.764853,-122.423959, , 
3287,13287,16th St & Guerrero St  , ,37.76472,-122.424256, , 
3288,13288,16th St & Harrison St  , ,37.765523,-122.412976, , 
3289,13289,16th St & Harrison St  , ,37.765377,-122.41329, , 
3291,13291,16th St & Mission St  , ,37.765152,-122.419611, , 
3293,13293,16th St & Mission St  , ,37.764983,-122.419835, , 
3295,13295,16th St & Potrero Ave  , ,37.7658,-122.407624, , 
3296,13296,16th St & Potrero Ave  , ,37.765764,-122.407612, , 
3297,13297,16th St & San Bruno Ave  , ,37.765861,-122.405515, , 
3299,13299,16th St & Shotwell St  , ,37.765218,-122.416048, , 
3300,13300,16th St & Valencia St  , ,37.764987,-122.421746, , 
3301,13301,16th St & Valencia St  , ,37.764849,-122.422056, , 
3302,13302,16th St & Vermont St  , ,37.766039,-122.40469, , 
3311,13311,17th St & Castro St  , ,37.762576,-122.434979, , 
3312,13312,17th St & De Haro St  , ,37.764904,-122.401451, , 
3313,13313,17th St & De Haro St  , ,37.764771,-122.401711, , 
3317,13317,17th St & Kansas St  , ,37.764727,-122.403544, , 
3321,13321,18th St & 3rd St  , ,37.762992,-122.388925, , 
3324,13324,18th St & Connecticut St  , ,37.76258,-122.397352, , 
3337,13337,18th St & Minnesota St  , ,37.762874,-122.390848, , 
3342,13342,18th St & Pennsylvania Ave  , ,37.762828,-122.393471, , 
3343,13343,18th St & Pennsylvania Ave  , ,37.762732,-122.39322, , 
3346,13346,18th St & Texas St  , ,37.762701,-122.395422, , 
3347,13347,18th St & Texas St  , ,37.762621,-122.39516, , 
3354,13354,19th Ave & Eucalyptus Dr  , ,37.731175,-122.474962, , 
3355,13355,19th Ave & Eucalyptus Dr  , ,37.73097,-122.47472, , 
3356,13356,19th Ave & Holloway Ave  , ,37.72111,-122.475302, , 
3357,13357,19TH AVE & Holloway Ave, ,37.72094,-122.475004, , 
3359,13359,19th Ave & Irving St  , ,37.76368,-122.47731, , 
3360,13360,19th Ave & Irving St  , ,37.76343,-122.47704, , 
3361,13361,19th Ave & Junipero Serra Blvd , ,37.716889,-122.472275, , 
3362,13362,19th Ave & Junipero Serra Blvd , ,37.71805,-122.47318, , 
3363,13363,19th Ave & Junipero Serra Blvd , ,37.717323,-122.47297, , 
3364,13364,19th Ave & Judah St  , ,37.7616,-122.476932, , 
3365,13365,19th Ave & Judah St  , ,37.7614,-122.47711, , 
3366,13366,19th Ave & Kirkham St  , ,37.76015,-122.47671, , 
3367,13367,19th Ave & Kirkham St  , ,37.75995,-122.47695, , 
3368,13368,19th Ave & Lawton St  , ,37.75786,-122.47654, , 
3369,13369,19th Ave & Lawton St  , ,37.757889,-122.476782, , 
3371,13371,19th Ave & Lincoln Way  , ,37.765375,-122.477404, , 
3372,13372,19th Ave & Moraga St  , ,37.75622,-122.47669, , 
3373,13373,19th Ave & Moraga St  , ,37.75599,-122.47642, , 
3374,13374,19th Ave & Noriega St  , ,37.75412,-122.47629, , 
3375,13375,19th Ave & Noriega St  , ,37.75392,-122.47653, , 
3376,13376,19th Ave & Randolph St  , ,37.7162,-122.47167, , 
3377,13377,19th Ave & Ocean Ave  , ,37.73279,-122.4751, , 
3378,13378,19th Ave & Ocean Ave  , ,37.73212,-122.4748, , 
3379,13379,19th Ave & Ortega St  , ,37.75272,-122.47619, , 
3380,13380,19th Ave & Ortega St  , ,37.75206,-122.4764, , 
3381,13381,19th Ave & Pacheco St  , ,37.7504,-122.47603, , 
3382,13382,19th Ave & Pacheco St  , ,37.7502,-122.47627, , 
3383,13383,19th Ave & Quintara St  , ,37.74853,-122.4759, , 
3384,13384,19th Ave & Quintara St  , ,37.7483,-122.47614, , 
3385,13385,19th Ave & Randolph St   , ,37.714856,-122.470249, , 
3387,13387,19th Ave & Randolph St   , ,37.714443,-122.469998, , 
3388,13388,19th Ave & Rivera St  , ,37.74667,-122.47577, , 
3389,13389,19th Ave & Rivera St  , ,37.74647,-122.47601, , 
3390,13390,19th Ave & Sloat Blvd  , ,37.734556,-122.475203, , 
3391,13391,19th Ave & Sloat Blvd  , ,37.734717,-122.474974, , 
3392,13392,19th Ave & Santiago St  , ,37.74524,-122.47567, , 
3393,13393,19th Ave & Santiago St  , ,37.74507,-122.4759, , 
3394,13394,19th Ave & Taraval St  , ,37.74331,-122.47554, , 
3395,13395,19th Ave & Taraval St  , ,37.74318,-122.47578, , 
3396,13396,19th Ave & Ulloa St  , ,37.74149,-122.47543, , 
3397,13397,19th Ave & Ulloa St  , ,37.74129,-122.47568, , 
3398,13398,19th Ave & Vicente St  , ,37.7392,-122.47528, , 
3399,13399,19th Ave & Vicente St  , ,37.73901,-122.47553, , 
3400,13400,19th Ave & Wawona St  , ,37.73757,-122.47542, , 
3401,13401,19th Ave & Wawona St  , ,37.73734,-122.47515, , 
3402,13402,19th Ave & Winston Dr  , ,37.72719,-122.47468, , 
3410,13410,20th St & 3rd St  , ,37.760536,-122.388707, , 
3425,13425,22nd Ave & Irving St  , ,37.763679,-122.480268, , 
3426,13426,22nd Ave & Judah St  , ,37.761457,-122.480106, , 
3427,13427,22nd Ave & Kirkham St  , ,37.759592,-122.47998, , 
3428,13428,22nd Ave & Lawton St  , ,37.757754,-122.479853, , 
3429,13429,22nd Ave & Lincoln Way  , ,37.765186,-122.480372, , 
3430,13430,22nd Ave & Moraga St  , ,37.755898,-122.479714, , 
3431,13431,22nd Ave & Noriega St  , ,37.754337,-122.479611, , 
3441,13441,23rd Ave & Irving St  , ,37.763134,-122.481482, , 
3442,13442,23rd Ave & Judah St  , ,37.761608,-122.481378, , 
3443,13443,23rd Ave & Kirkham St  , ,37.759735,-122.48124, , 
3444,13444,23rd Ave & Lawton St  , ,37.75787,-122.481113, , 
3445,13445,23rd Ave & Lincoln Way  , ,37.765026,-122.481609, , 
3446,13446,23rd Ave & Moraga St  , ,37.756014,-122.480986, , 
3447,13447,23rd Ave & Noriega St  , ,37.75414,-122.48086, , 
3452,13452,23rd St & Rhode Island St  , ,37.75451,-122.401694, , 
3489,13489,25th Ave & Balboa St  , ,37.776419,-122.48456, , 
3490,13490,25th Ave & Balboa St  , ,37.776187,-122.484365, , 
3491,13491,25th Ave & California St  , ,37.784003,-122.485102, , 
3492,13492,25th Ave & California St  , ,37.783807,-122.48485, , 
3495,13495,25th Ave & Clement St  , ,37.782147,-122.484975, , 
3496,13496,25th Ave & Clement St  , ,37.781951,-122.484712, , 
3497,13497,25th Ave & El Camino Del Mar  , ,37.787536,-122.485139, , 
3498,13498,25th Ave & El Camino Del Mar  , ,37.787367,-122.485356, , 
3499,13499,25th Ave & Fulton St  , ,37.772689,-122.484295, , 
3500,13500,25th Ave & Geary Blvd  , ,37.780255,-122.484837, , 
3501,13501,25th Ave & Geary Blvd  , ,37.779925,-122.484619, , 
3502,13502,25th Ave & Lake St  , ,37.785868,-122.485241, , 
3503,13503,25th Ave & Lake St  , ,37.785689,-122.485034, , 
3505,13505,25th St & Connecticut St, ,37.752242,-122.39662, , 
3513,13513,25th St & Wisconsin St  , ,37.752162,-122.398293, , 
3514,13514,26th St & Castro St  , ,37.74815,-122.43363, , 
3516,13516,26th St & De Haro St  , ,37.75086,-122.40015, , 
3517,13517,26th St & De Haro St  , ,37.750753,-122.400024, , 
3520,13520,26th St & Noe St  , ,37.74827,-122.43177, , 
3521,13521,26th St & Noe St  , ,37.748174,-122.431636, , 
3522,13522,26th St & Rhode Island St  , ,37.750718,-122.401124, , 
3524,13524,26th St & Wisconsin St  , ,37.75111,-122.39866, , 
3535,13535,30th St & Church St  , ,37.742159,-122.426369, , 
3536,13536,30th St & Church St  , ,37.74204,-122.42676, , 
3537,13537,30th St & Dolores St  , ,37.742304,-122.424026, , 
3538,13538,30th St & Dolores St  , ,37.74217,-122.424457, , 
3540,13540,30th St & Mission St  , ,37.742408,-122.422037, , 
3541,13541,30th St & Mission St  , ,37.74231,-122.42217, , 
3542,13542,30th St & Noe St  , ,37.74188,-122.43079, , 
3543,13543,30th St & Sanchez St  , ,37.74202,-122.4286, , 
3544,13544,30th St & Sanchez St  , ,37.74191,-122.42902, , 
3546,13546,32nd Ave & California St  , ,37.783419,-122.492442, , 
3547,13547,32nd Ave & California St  , ,37.783429,-122.492553, , 
3548,13548,32nd Ave & Clement St  , ,37.781995,-122.492335, , 
3549,13549,32nd Ave & Clement St  , ,37.781802,-122.492425, , 
3550,13550,32nd Ave & Geary Blvd  , ,37.779939,-122.492296, , 
3555,13555,33rd Ave & Clement St  , ,37.781537,-122.493354, , 
3561,13561,36th Ave & Lincoln Way  , ,37.764557,-122.495372, , 
3562,13562,37th Ave & Lincoln Way  , ,37.76436,-122.496621, , 
3566,13566,42nd Ave & Clement St  , ,37.781087,-122.502994, , 
3567,13567,43rd Ave & Clement St  , ,37.781007,-122.504232, , 
3568,13568,43rd Ave & Point Lobos Ave  , ,37.779784,-122.504139, , 
3599,13599,46th Ave & Taraval St  , ,37.741685,-122.504534, , 
3600,13600,46th Ave & Ulloa St  , ,37.739998,-122.504579, , 
3601,13601,46th Ave & Ulloa St  , ,37.739829,-122.504407, , 
3602,13602,46th Ave & Vicente St  , ,37.738142,-122.50444, , 
3603,13603,46th Ave & Vicente St  , ,37.737973,-122.504268, , 
3608,13608,48th Ave & Point Lobos Ave  , ,37.779023,-122.509411, , 
3670,13670,Avenue B & Gateview Ave, ,37.82695,-122.377402, , 
3680,13680,Avalon Ave & La Grande Ave  , ,37.72474,-122.42422, , 
3681,13681,Avalon Ave & La Grande Ave   , ,37.724867,-122.424128, , 
3682,13682,Avalon Ave & Peru Ave  , ,37.72508,-122.42342, , 
3685,13685,Bacon St & Girard St  , ,37.72744,-122.40451, , 
3686,13686,Bacon St & Girard St  , ,37.72732,-122.4047, , 
3687,13687,Bacon St & Goettingen St  , ,37.72691,-122.40648, , 
3688,13688,Bacon St & Goettingen St  , ,37.7268,-122.40667, , 
3689,13689,Beverly St & Garfield St  , ,37.719728,-122.471739, , 
3694,13694,Bosworth St & Elk St  , ,37.734871,-122.44007, , 
3695,13695,Bosworth St & Diamond St  , ,37.733595,-122.434011, , 
3696,13696,Bosworth St & Diamond St  , ,37.733488,-122.43408, , 
3697,13697,Bosworth St & Elk St  , ,37.735005,-122.440093, , 
3698,13698,Bosworth St & Lippard Ave  , ,37.733925,-122.435706, , 
3699,13699,Bosworth St & Lippard Ave  , ,37.733827,-122.43597, , 
3705,13705,Lincoln Blvd & Bowley Ave  , ,37.788465,-122.482617, , 
3706,13706,Bowley St & Lincoln Blvd  , ,37.792222,-122.481186, , 
3715,13715,Broad St & Capitol Ave  , ,37.713191,-122.458921, , 
3716,13716,Broad St & Capitol Ave  , ,37.713152,-122.459159, , 
3717,13717,Broad St & Orizaba Ave  , ,37.713178,-122.462331, , 
3718,13718,Broad St & Plymouth Ave  , ,37.713222,-122.455927, , 
3719,13719,Broad St & Plymouth Ave  , ,37.713161,-122.45618, , 
3721,13721,Bridge View Dr & Scotia Ave   , ,37.73184,-122.3994, , 
3722,13722,Bridge View Dr & Topeka Ave   , ,37.7332,-122.39769, , 
3723,13723,Bryant St & 4th St   , ,37.779474,-122.398068, , 
3724,13724,Bryant St & 5th St   , ,37.77795,-122.39995, , 
3725,13725,Bryant St & 6th St   , ,37.776157,-122.402231, , 
3768,13768,228 Bayshore Blvd, ,37.74472,-122.40443, , 
3771,13771,Bayshore Blvd & Alemany Blvd, ,37.737729,-122.406997, , 
3772,13772,Bayshore Blvd & Arleta Ave, ,37.712208,-122.402523, , 
3773,13773,Bayshore Blvd & Augusta St, ,37.73425,-122.40558, , 
3775,13775,Bayshore Blvd & Boutwell St, ,37.73488,-122.40588, , 
3776,13776,Bayshore Blvd & Campbell Ave, ,37.71481,-122.39936, , 
3778,13778,Bayshore Blvd & Cortland Ave, ,37.73986,-122.40677, , 
3779,13779,Bayshore Blvd & Cortland Ave, ,37.73946,-122.407122, , 
3780,13780,Bayshore Blvd & Hester Ave, ,37.71497,-122.39898, , 
3783,13783,Bayshore Blvd & Leland Ave, ,37.711138,-122.403783, , 
3788,13788,Bayshore Blvd & Silver Ave, ,37.733213,-122.40472, , 
3789,13789,Bayshore Blvd & Silver Ave, ,37.732963,-122.404789, , 
3793,13793,Bayshore Blvd & Visitacion Ave, ,37.71062,-122.40389, , 
3822,13822,California St & 4th Ave  , ,37.785353,-122.462292, , 
3823,13823,California St & 4th Ave  , ,37.785178,-122.46257, , 
3824,13824,California St & 6th Ave  , ,37.785069,-122.464641, , 
3825,13825,California St & 6th Ave  , ,37.784902,-122.464709, , 
3826,13826,California St & 7th Ave   , ,37.784819,-122.465432, , 
3827,13827,California St & 8th Ave  , ,37.78463,-122.466825, , 
3828,13828,California St & 10th Ave  , ,37.784665,-122.469159, , 
3830,13830,California St & 10th Ave  , ,37.784551,-122.468963, , 
3831,13831,California St & 12th Ave  , ,37.784586,-122.470848, , 
3832,13832,California St & 12th Ave  , ,37.784454,-122.471103, , 
3833,13833,California St & 16th Ave  , ,37.784386,-122.475229, , 
3834,13834,California St & 16th Ave  , ,37.784253,-122.475501, , 
3835,13835,California St & 19th Ave  , ,37.784241,-122.478446, , 
3836,13836,California St & 19th Ave  , ,37.784109,-122.47871, , 
3837,13837,California St & 22nd Ave  , ,37.784097,-122.481659, , 
3838,13838,California St & 22nd Ave  , ,37.783941,-122.481893, , 
3839,13839,California St & 25th Ave  , ,37.78395,-122.48482, , 
3840,13840,California St & 25th Ave  , ,37.783808,-122.485286, , 
3841,13841,California St & 28th Ave  , ,37.783798,-122.488074, , 
3842,13842,California St & 28th Ave  , ,37.783658,-122.488456, , 
3843,13843,California St & 30th Ave  , ,37.783671,-122.490513, , 
3844,13844,California St & 30th Ave  , ,37.783578,-122.490087, , 
3845,13845,California St & Arguello Blvd , ,37.785703,-122.459288, , 
3846,13846,California St & Arguello Blvd , ,37.785659,-122.459036, , 
3847,13847,California St & Baker St  , ,37.787738,-122.443634, , 
3848,13848,California St & Baker St  , ,37.78762,-122.443384, , 
3852,13852,California St & Cherry St  , ,37.786042,-122.456835, , 
3853,13853,California St & Cherry St  , ,37.785974,-122.456329, , 
3858,13858,California St & Divisadero St , ,37.788087,-122.44087, , 
3859,13859,California St & Divisadero St , ,37.787954,-122.440721, , 
3875,13875,California St & Laurel St  , ,37.786923,-122.449957, , 
3876,13876,California St & Laurel St  , ,37.786801,-122.44998, , 
3884,13884,California St & Pierce St  , ,37.788518,-122.437484, , 
3885,13885,California St & Pierce St  , ,37.788455,-122.436808, , 
3886,13886,California St & Park Presidio Blvd, ,37.784515,-122.47325, , 
3887,13887,California St & Park Presidio Blvd, ,37.784365,-122.472764, , 
3892,13892,California St & Presidio Ave  , ,37.787265,-122.446965, , 
3893,13893,California St & Presidio Ave  , ,37.787212,-122.446931, , 
3896,13896,California St & Spruce St  , ,37.786462,-122.453522, , 
3897,13897,California St & Spruce St  , ,37.786382,-122.45327, , 
3911,13911,Carl St & Cole St  , ,37.765745,-122.450131, , 
3912,13912,Carl St & Hillway Ave  , ,37.765003,-122.456561, , 
3913,13913,Carl St & Hillway Ave  , ,37.764932,-122.456512, , 
3914,13914,Carl St & Stanyan St  , ,37.765495,-122.45259, , 
3915,13915,Carl St & Stanyan St  , ,37.765371,-122.452928, , 
3920,13920,Cashmere St & Hudson Ave  , ,37.73573,-122.38354, , 
3921,13921,Cashmere St & La Salle Ave  , ,37.73585,-122.38695, , 
3922,13922,Cashmere St & Whitney Young Cir, ,37.7366,-122.38588, , 
3927,13927,Cabrillo St & La Playa St, ,37.773527,-122.510002, , 
3940,13940,Chestnut St & Divisadero St  , ,37.800051,-122.442746, , 
3941,13941,Chestnut St & Fillmore St  , ,37.800845,-122.436245, , 
3942,13942,Chestnut St & Fillmore St  , ,37.800738,-122.436371, , 
3947,13947,Chestnut St & Laguna St  , ,37.801486,-122.431475, , 
3948,13948,Chestnut St & Laguna St  , ,37.80137,-122.431406, , 
3952,13952,Chestnut St & Pierce St  , ,37.800506,-122.439352, , 
3953,13953,Chestnut St & Pierce St  , ,37.80031,-122.439616, , 
3957,13957,Chestnut St & Van Ness Ave  , ,37.802199,-122.424894, , 
3958,13958,Chestnut St & Webster St  , ,37.801103,-122.434502, , 
3959,13959,Chestnut St & Webster St  , ,37.800951,-122.434697, , 
3960,13960,Chicago Way & Cordova Ave   , ,37.70887,-122.434222, , 
3961,13961,Chicago Way & Cordova Ave   , ,37.708968,-122.434336, , 
3962,13962,Chicago Way & Naylor St   , ,37.709834,-122.432435, , 
3963,13963,Chicago Way & Naylor St   , ,37.709628,-122.432504, , 
3964,13964,Chicago Way & South Hill Blvd  , ,37.710565,-122.431381, , 
3984,13984,Church St & 16th St  , ,37.764621,-122.428722, , 
4005,14005,Church St & Duboce Ave   , ,37.769499,-122.429167, , 
4006,14006,Church St & Duboce Ave  , ,37.769302,-122.429087, , 
4009,14009,Market St & Church St, ,37.767893,-122.42856, , 
4015,14015,Clay St & Drumm St  , ,37.795436,-122.396819, , 
4016,14016,Clay St & Franklin St  , ,37.791907,-122.424463, , 
4017,14017,Clay St & Front St  , ,37.795116,-122.399101, , 
4018,14018,Clay St & Grant Ave  , ,37.794263,-122.405971, , 
4019,14019,Clay St & Hyde St  , ,37.792756,-122.417899, , 
4020,14020,Clay St & Jones St  , ,37.793173,-122.414616, , 
4021,14021,Clay St & Kearny St  , ,37.794477,-122.404411, , 
4022,14022,Clay St & Larkin St  , ,37.792526,-122.419589, , 
4023,14023,Clay St & Leavenworth St  , ,37.792959,-122.416304, , 
4024,14024,Clay St & Mason St  , ,37.793653,-122.410823, , 
4025,14025,Clay St & Montgomery St  , ,37.794682,-122.40277, , 
4026,14026,Clay St & Polk St  , ,37.792357,-122.42101, , 
4027,14027,Clay St & Powell St  , ,37.793826,-122.409591, , 
4028,14028,Clay St & Sansome St  , ,37.794778,-122.401336, , 
4029,14029,Clay St & Stockton St  , ,37.794082,-122.407561, , 
4030,14030,Clay St & Taylor St  , ,37.793363,-122.412744, , 
4031,14031,Clay St & Van Ness Ave  , ,37.792106,-122.422913, , 
4091,14091,Cole St & Carl St  , ,37.76594,-122.449911, , 
4092,14092,Cole St & Carl St  , ,37.76556,-122.44996, , 
4094,14094,Cole St & Frederick St  , ,37.76683,-122.4502, , 
4095,14095,Cole St & Haight St  , ,37.769456,-122.45061, , 
4096,14096,Cole St & Haight St  , ,37.769447,-122.450771, , 
4099,14099,Cole St & Waller St  , ,37.768528,-122.450427, , 
4100,14100,Columbus Ave & Bay St  , ,37.80551,-122.41784, , 
4103,14103,Columbus Ave & Chestnut St   , ,37.803794,-122.415136, , 
4105,14105,Columbus Ave & Filbert St   , ,37.801188,-122.411605, , 
4106,14106,Columbus Ave & Francisco St   , ,37.804517,-122.416167, , 
4107,14107,Columbus Ave & Francisco St  , ,37.804205,-122.415973, , 
4114,14114,Columbus Ave & Lombard St  , ,37.802598,-122.413646, , 
4115,14115,Columbus Ave & Mason St   , ,37.802089,-122.41266, , 
4116,14116,Columbus Ave & North Point St , ,37.80549,-122.417589, , 
4118,14118,Columbus Ave & Taylor St   , ,37.803285,-122.414643, , 
4119,14119,Columbus Ave & Union St  , ,37.8005,-122.410356, , 
4120,14120,Columbus Ave & Union St  , ,37.800384,-122.410505, , 
4122,14122,General Managers Office, ,37.753902,-122.397341, , 
4123,14123,Connecticut St & 17th St  , ,37.76498,-122.397661, , 
4124,14124,Connecticut St & 17th St  , ,37.764749,-122.397785, , 
4125,14125,Connecticut St & 18th St  , ,37.762614,-122.397569, , 
4128,14128,Connecticut St & 25th St  , ,37.752563,-122.396402, , 
4129,14129,Connecticut St & 26th St  , ,37.75143,-122.396345, , 
4130,14130,Connecticut St & 26th St  , ,37.751269,-122.396517, , 
4131,14131,Connecticut St & Cesar Chavez St , ,37.750002,-122.39622, , 
4132,14132,Connecticut St & Cesar Chavez St , ,37.749868,-122.396381, , 
4137,14137,Cordova Ave & Prague St  , ,37.710182,-122.434874, , 
4138,14138,Cordova Ave & Winding Way  , ,37.709638,-122.434828, , 
4139,14139,Cordova Ave & Winding Way  , ,37.709504,-122.434588, , 
4142,14142,Cortland Ave & Andover St  , ,37.73909,-122.41639, , 
4143,14143,Cortland Ave & Andover St  , ,37.73904,-122.41658, , 
4145,14145,Cortland Ave & Bocana St  , ,37.7393,-122.41846, , 
4146,14146,Cortland Ave & Bocana St  , ,37.73931,-122.41872, , 
4147,14147,Cortland Ave & Bradford St   , ,37.739791,-122.409746, , 
4148,14148,Cortland Ave & Bayshore Blvd , ,37.739567,-122.407031, , 
4149,14149,Cortland Ave & Elsie St   , ,37.73992,-122.41997, , 
4150,14150,Cortland Ave & Elsie St   , ,37.7397,-122.41969, , 
4151,14151,Cortland Ave & Ellsworth St  , ,37.73892,-122.41455, , 
4152,14152,Cortland Ave & Ellsworth St  , ,37.738829,-122.414615, , 
4153,14153,Cortland Ave & Folsom St  , ,37.739,-122.41366, , 
4154,14154,Cortland Ave & Folsom St  , ,37.73892,-122.41343, , 
4155,14155,Cortland Ave & Hilton St  , ,37.739692,-122.40781, , 
4156,14156,Cortland Ave & Mission St   , ,37.74101,-122.42267, , 
4157,14157,Cortland Ave & Mission St   , ,37.74085,-122.42251, , 
4158,14158,Cortland Ave & Prentiss St  , ,37.73978,-122.41199, , 
4159,14159,Cortland Ave & Prentiss St  , ,37.73957,-122.41211, , 
4160,14160,Cortland Ave & Prospect Ave   , ,37.740294,-122.420904, , 
4161,14161,Cortland Ave & Prospect Ave   , ,37.7402,-122.42093, , 
4207,14207,Crespi Dr & Varela Ave, ,37.7201,-122.47594, , 
4211,14211,Fulton St & 33rd Ave  , ,37.77223,-122.49318, , 
4212,14212,Fulton St & 33rd Ave  , ,37.7721,-122.49288, , 
4213,14213,Fulton St & 36th Ave  , ,37.77208,-122.49634, , 
4215,14215,Fulton St & 37th Ave  , ,37.77192,-122.49679, , 
4218,14218,Fulton St & 40th Ave  , ,37.77179,-122.49991, , 
4221,14221,Fulton St & 46th Ave  , ,37.77159,-122.50704, , 
4222,14222,Fulton St & 46th Ave  , ,37.77148,-122.50631, , 
4223,14223,Fulton St & Arguello Blvd  , ,37.774354,-122.458416, , 
4224,14224,Fulton St & Arguello Blvd  , ,37.774282,-122.458003, , 
4225,14225,Fulton St & Clayton St  , ,37.775407,-122.449774, , 
4226,14226,Fulton St & Clayton St  , ,37.77537,-122.44929, , 
4228,14228,Fulton St & La Playa St  , ,37.77134,-122.50939, , 
4229,14229,Fulton St & Masonic Ave  , ,37.775844,-122.446404, , 
4230,14230,Fulton St & Masonic Ave  , ,37.775773,-122.446289, , 
4231,14231,Fulton St & Park Presidio Blvd, ,37.77319,-122.47218, , 
4232,14232,Fulton St & Park Presidio Blvd, ,37.773067,-122.471699, , 
4233,14233,Fulton St & Parker Ave  , ,37.775014,-122.452868, , 
4234,14234,Fulton St & Shrader St  , ,37.77499,-122.45238, , 
4235,14235,Fulton St & Stanyan St, ,37.774756,-122.454519, , 
4236,14236,Fulton St & Stanyan StW, ,37.774773,-122.454737, , 
4245,14245,Garfield St & Beverly St  , ,37.719719,-122.471533, , 
4246,14246,Garfield St & Bright St  , ,37.719988,-122.463459, , 
4247,14247,Garfield St & Bright St  , ,37.719791,-122.463642, , 
4248,14248,Garfield St & Byxbee St  , ,37.719737,-122.469735, , 
4253,14253,Garfield St & Vernon St  , ,37.719746,-122.467937, , 
4254,14254,Garfield St & Victoria St  , ,37.719613,-122.465452, , 
4255,14255,Geary Blvd & 3rd Ave  , ,37.781277,-122.460938, , 
4256,14256,Geary Blvd & 3rd Ave  , ,37.781045,-122.461156, , 
4257,14257,Geary Blvd & 6th Ave  , ,37.781134,-122.464159, , 
4258,14258,Geary Blvd & 6th Ave  , ,37.780902,-122.464377, , 
4259,14259,Geary Blvd & 9th Ave  , ,37.780982,-122.467644, , 
4260,14260,Geary Blvd & 9th Ave  , ,37.780777,-122.467323, , 
4261,14261,Geary Blvd & 12th Ave  , ,37.780839,-122.470601, , 
4262,14262,Geary Blvd & 12th Ave  , ,37.780607,-122.470819, , 
4263,14263,Geary Blvd & 17th Ave  , ,37.780597,-122.476045, , 
4264,14264,Geary Blvd & 17th Ave  , ,37.780365,-122.476263, , 
4265,14265,Geary Blvd & 20th Ave  , ,37.780453,-122.479266, , 
4266,14266,Geary Blvd & 20th Ave  , ,37.780221,-122.479484, , 
4267,14267,Geary Blvd & 22nd Ave  , ,37.780346,-122.481398, , 
4268,14268,Geary Blvd & 23rd Ave  , ,37.780078,-122.482693, , 
4269,14269,Geary Blvd & 25th Ave  , ,37.78022,-122.48461, , 
4270,14270,Geary Blvd & 25th Ave  , ,37.779979,-122.484825, , 
4271,14271,Geary Blvd & 28th Ave  , ,37.780005,-122.487806, , 
4272,14272,Geary Blvd & 28th Ave  , ,37.779862,-122.488046, , 
4273,14273,Geary Blvd & 30th Ave  , ,37.779959,-122.489972, , 
4274,14274,Geary Blvd & 30th Ave  , ,37.779727,-122.49019, , 
4275,14275,Geary Blvd & 32nd Ave  , ,37.779611,-122.491943, , 
4277,14277,Geary Blvd & 33rd Ave  , ,37.779735,-122.493112, , 
4278,14278,Geary Blvd & 33rd Ave  , ,37.779798,-122.493445, , 
4279,14279,Geary Blvd & 33rd Ave  , ,37.779574,-122.493399, , 
4280,14280,Geary Blvd & 36th Ave  , ,37.779671,-122.496402, , 
4281,14281,Geary Blvd & 36th Ave  , ,37.779439,-122.49662, , 
4282,14282,Geary Blvd & 39th Ave  , ,37.779473,-122.500677, , 
4283,14283,Geary Blvd & 39th Ave  , ,37.779286,-122.499829, , 
4285,14285,Geary Blvd & 42nd Ave  , ,37.779151,-122.502775, , 
4286,14286,Geary Blvd & 45th Ave  , ,37.779043,-122.506259, , 
4288,14288,Geary Blvd & Arguello Blvd  , ,37.781153,-122.458692, , 
4289,14289,Geary Blvd & Baker St  , ,37.782973,-122.442965, , 
4290,14290,Geary Blvd & Collins St  , ,37.782242,-122.449992, , 
4291,14291,Geary Blvd & Collins St  , ,37.782028,-122.449911, , 
4292,14292,Geary Blvd & Commonwealth St  , ,37.781528,-122.455677, , 
4293,14293,Geary Blvd & Divisadero St  , ,37.783428,-122.439366, , 
4294,14294,Geary Blvd & Divisadero St  , ,37.783178,-122.439572, , 
4295,14295,Geary Blvd & Fillmore St  , ,37.784391,-122.43305, , 
4298,14298,Geary Blvd & Gough St  , ,37.785434,-122.425082, , 
4300,14300,Geary St & Jones St, ,37.786769,-122.413332, , 
4301,14301,Geary St & Kearny St, ,37.787997,-122.403656, , 
4302,14302,Geary St & Larkin St, ,37.786137,-122.41825, , 
4303,14303,Geary St & Leavenworth St, ,37.786556,-122.414971, , 
4304,14304,Geary Blvd & Laguna St  , ,37.785033,-122.427811, , 
4305,14305,Geary Blvd & Laguna St  , ,37.784854,-122.428155, , 
4307,14307,Castro St & 14th St  , ,37.76761,-122.43558, , 
4308,14308,Castro St & 14th St  , ,37.76742,-122.43571, , 
4309,14309,Castro St & 15th St  , ,37.76583,-122.43557, , 
4310,14310,Castro St & 15th St  , ,37.76561,-122.43538, , 
4311,14311,Castro St & 16th St  , ,37.764164,-122.435254, , 
4312,14312,Castro St & 16th St  , ,37.76427,-122.43544, , 
4313,14313,Castro St & 17th St  , ,37.76237,-122.43508, , 
4314,14314,Castro St & 18th St  , ,37.760836,-122.434934, , 
4315,14315,Castro St & 18th St  , ,37.760863,-122.435048, , 
4316,14316,Castro St & 19th St  , ,37.75939,-122.43491, , 
4317,14317,Castro St & 19th St  , ,37.75916,-122.43479, , 
4318,14318,Castro St & 20th St  , ,37.75778,-122.43477, , 
4319,14319,Castro St & 20th St  , ,37.757632,-122.434636, , 
4320,14320,Castro St & 21st St   , ,37.755955,-122.434465, , 
4321,14321,Castro St & 21st St   , ,37.756098,-122.434625, , 
4322,14322,Castro St & 22nd St  , ,37.75464,-122.43448, , 
4323,14323,Castro St & 22nd St  , ,37.75441,-122.43431, , 
4324,14324,Castro St & 23rd St   , ,37.752779,-122.434156, , 
4325,14325,Castro St & 23rd St   , ,37.752895,-122.434316, , 
4326,14326,Castro St & 24th St  , ,37.7512,-122.43401, , 
4327,14327,Castro St & 24th St  , ,37.751315,-122.43411, , 
4328,14328,Castro St & 25th St  , ,37.74981,-122.43404, , 
4329,14329,Castro St & 25th St  , ,37.7496,-122.43383, , 
4330,14330,Castro St & Duboce Ave  , ,37.76918,-122.43596, , 
4331,14331,Castro St & Duboce Ave  , ,37.76895,-122.43571, , 
4332,14332,Castro St & Elizabeth St   , ,37.751886,-122.434053, , 
4333,14333,Castro St & Elizabeth St   , ,37.752083,-122.434248, , 
4334,14334,Castro St & Market St  , ,37.762397,-122.435266, , 
4336,14336,Curtis St & Prague St   , ,37.710209,-122.437955, , 
4337,14337,Cargo Way & 3rd St  , ,37.74606,-122.38695, , 
4338,14338,Cargo Way & 3rd St  , ,37.74577,-122.38665, , 
4341,14341,Daly City Bart Station, ,37.705764,-122.469273, , 
4350,14350,De Haro St & 16th St  , ,37.766056,-122.40163, , 
4351,14351,De Haro St & 17th St  , ,37.764762,-122.401516, , 
4352,14352,De Haro St & 18th St  , ,37.76221,-122.401243, , 
4353,14353,De Haro St & 19th St  , ,37.760934,-122.401117, , 
4354,14354,De Haro St & 20th St  , ,37.759667,-122.401026, , 
4355,14355,De Haro St & 22nd St  , ,37.757437,-122.400822, , 
4356,14356,De Haro St & 23rd St  , ,37.754885,-122.400571, , 
4357,14357,De Haro St & Mariposa St  , ,37.763504,-122.401368, , 
4358,14358,De Haro St & Southern Heights Ave, ,37.758017,-122.400867, , 
4386,14386,Diamond St & Bosworth St  , ,37.733506,-122.434148, , 
4387,14387,Diamond St & Bosworth St  , ,37.733452,-122.434217, , 
4407,14407,Divisadero St & Beach St  , ,37.803772,-122.443697, , 
4408,14408,Divisadero St & Bush St  , ,37.786283,-122.439996, , 
4409,14409,Divisadero St & California St , ,37.788184,-122.440385, , 
4410,14410,Divisadero St & California St , ,37.787988,-122.4405, , 
4411,14411,Divisadero St & Chestnut St  , ,37.800087,-122.442964, , 
4412,14412,Divisadero St & Clay St  , ,37.789977,-122.440741, , 
4413,14413,Divisadero St & Clay St  , ,37.78997,-122.44089, , 
4414,14414,Divisadero St & Eddy St  , ,37.780591,-122.438942, , 
4415,14415,Divisadero St & Eddy St  , ,37.780591,-122.438942, , 
4418,14418,Divisadero St & Francisco St  , ,37.80097,-122.443136, , 
4421,14421,Divisadero St & Geary Blvd  , ,37.783375,-122.439412, , 
4422,14422,Divisadero St & Geary Blvd  , ,37.78316,-122.439526, , 
4423,14423,Divisadero St & Haight St  , ,37.771329,-122.436983, , 
4424,14424,Divisadero St & Haight St  , ,37.77105,-122.4371, , 
4425,14425,Divisadero St & Hayes St  , ,37.775059,-122.437739, , 
4426,14426,Divisadero St & Hayes St  , ,37.774889,-122.437865, , 
4427,14427,Divisadero St & Jackson St  , ,37.79154,-122.44108, , 
4428,14428,Divisadero St & Mcallister St , ,37.77786,-122.4383, , 
4429,14429,Divisadero St & Mcallister St , ,37.777682,-122.438415, , 
4430,14430,Divisadero St & North Point St, ,37.802844,-122.443514, , 
4431,14431,Divisadero St & Oak St  , ,37.773185,-122.43735, , 
4432,14432,Divisadero St & Oak St  , ,37.773051,-122.437487, , 
4433,14433,Divisadero St & Pine St  , ,37.786997,-122.440317, , 
4434,14434,Divisadero St & Sutter St  , ,37.785338,-122.439813, , 
4435,14435,Divisadero St & Sutter St  , ,37.78515,-122.439939, , 
4436,14436,Division St & Bryant St  , ,37.76934,-122.41074, , 
4437,14437,Division St & Rhode Island St , ,37.76976,-122.403152, , 
4438,14438,Division St & Townsend St  , ,37.769894,-122.403301, , 
4440,14440,Donahue St & Innes Ave   , ,37.729002,-122.369913, , 
4448,14448,Duboce Ave & Church St  , ,37.769409,-122.4294, , 
4451,14451,Duboce Ave & Noe St  , ,37.76911,-122.4337, , 
4456,14456,Earl St & Kirkwood Ave   , ,37.728779,-122.37313, , 
4482,14482,Eddy St & Larkin St  , ,37.783273,-122.417357, , 
4490,14490,Eddy St & Polk St  , ,37.783059,-122.419019, , 
4501,14501,The Embarcadero & Bay St  , ,37.806945,-122.406278, , 
4502,14502,The Embarcadero & Bay St  , ,37.806629,-122.40603, , 
4503,14503,THE EMBARCADERO & BROADWAY, ,37.799552,-122.397869, , 
4504,14504,THE EMBARCADERO & BROADWAY, ,37.798901,-122.397434, , 
4508,14508,The Embarcadero & Folsom St  , ,37.790731,-122.389772, , 
4511,14511,The Embarcadero & Folsom St  , ,37.790561,-122.389898, , 
4513,14513,The Embarcadero & Ferry Building, ,37.79489,-122.393552, , 
4515,14515,The Embarcadero & Greenwich St, ,37.803263,-122.401113, , 
4517,14517,The Embarcadero & Green St  , ,37.801264,-122.399369, , 
4518,14518,The Embarcadero & Green St  , ,37.800605,-122.39892, , 
4519,14519,The Embarcadero & Howard St  , ,37.792686,-122.391146, , 
4520,14520,The Embarcadero & Howard St  , ,37.792159,-122.391066, , 
4529,14529,The Embarcadero & Sansome St  , ,37.805022,-122.403314, , 
4530,14530,The Embarcadero & Stockton St , ,37.808351,-122.410287, , 
4531,14531,The Embarcadero & Townsend St  , ,37.7836,-122.38832, , 
4532,14532,The Embarcadero & Washington St, ,37.797085,-122.39567, , 
4534,14534,The Embarcadero & Washington St, ,37.796355,-122.395181, , 
4547,14547,Evans Ave & 3rd St   , ,37.742628,-122.387862, , 
4548,14548,Evans Ave & Cesar Chavez St  , ,37.749066,-122.396886, , 
4549,14549,Evans Ave & Cesar Chavez St  , ,37.74903,-122.397069, , 
4550,14550,Evans Ave & Keith St   , ,37.73877,-122.380797, , 
4551,14551,Evans Ave & Keith St   , ,37.738761,-122.381084, , 
4552,14552,Evans Ave & Middle Point Rd   , ,37.737672,-122.379252, , 
4553,14553,Evans Ave & Mendell St   , ,37.740699,-122.384507, , 
4555,14555,Evans Ave & Newhall St, ,37.741949,-122.386408, , 
4556,14556,Evans Ave & Napoleon St   , ,37.747263,-122.395879, , 
4557,14557,Evans Ave & Napoleon St   , ,37.747343,-122.396257, , 
4558,14558,Evans Ave & Newhall St  , ,37.740003,-122.382973, , 
4559,14559,Evans Ave & Phelps St   , ,37.742994,-122.388309, , 
4560,14560,Evans Ave & Phelps St   , ,37.742977,-122.388595, , 
4561,14561,Evans Ave & Quint St   , ,37.744245,-122.390531, , 
4562,14562,Evans Ave & Selby St   , ,37.745968,-122.39384, , 
4564,14564,EVANS AVE/Opposite US Post Office, ,37.739717,-122.382813, , 
4581,14581,Felton St & Amherst St  , ,37.72702,-122.41634, , 
4582,14582,Felton St & Amherst St  , ,37.72688,-122.41653, , 
4583,14583,Felton St & Cambridge St  , ,37.7264,-122.41874, , 
4584,14584,Felton St & Cambridge St  , ,37.72637,-122.41851, , 
4587,14587,Felton St & Harvard St  , ,37.72597,-122.42028, , 
4588,14588,Felton St & Harvard St  , ,37.72586,-122.42046, , 
4589,14589,Felton St & Madison St  , ,37.725598,-122.422043, , 
4590,14590,Felton St & Madison St  , ,37.72543,-122.42211, , 
4593,14593,Felton St & Peru Ave  , ,37.7252,-122.42324, , 
4596,14596,Felton St & University St  , ,37.7274,-122.41457, , 
4603,14603,Fillmore St & Bay St  , ,37.802585,-122.43668, , 
4604,14604,Fillmore St & Broadway  , ,37.794158,-122.434842, , 
4605,14605,Fillmore St & Broadway  , ,37.793805,-122.434878, , 
4606,14606,Fillmore St & Beach St  , ,37.804423,-122.437127, , 
4607,14607,Fillmore St & Beach St  , ,37.804447,-122.436958, , 
4608,14608,Fillmore St & Chestnut St  , ,37.801091,-122.436229, , 
4609,14609,Fillmore St & Chestnut St  , ,37.800891,-122.436469, , 
4610,14610,Fillmore St & Cervantes Blvd  , ,37.802817,-122.436806, , 
4611,14611,Fillmore St & Eddy St  , ,37.781733,-122.432329, , 
4612,14612,Fillmore St & Eddy St  , ,37.781523,-122.432401, , 
4613,14613,Fillmore St & Golden Gate Ave , ,37.779859,-122.431955, , 
4614,14614,Fillmore St & Geary Blvd  , ,37.784733,-122.432921, , 
4615,14615,Fillmore St & Geary Blvd  , ,37.783984,-122.43291, , 
4616,14616,Fillmore St & Grove St  , ,37.776998,-122.431369, , 
4617,14617,Fillmore St & Grove St  , ,37.776859,-122.431472, , 
4618,14618,Fillmore St & Haight St  , ,37.772199,-122.430537, , 
4620,14620,Fillmore St & Haight St  , ,37.772033,-122.430347, , 
4621,14621,Fillmore St & Hayes St  , ,37.776106,-122.431197, , 
4622,14622,Fillmore St & Hayes St  , ,37.775598,-122.431207, , 
4623,14623,Fillmore St & Jackson St  , ,37.792761,-122.434556, , 
4624,14624,Fillmore St & Jackson St  , ,37.792386,-122.434607, , 
4625,14625,Fillmore St & Jefferson St  , ,37.805421,-122.437389, , 
4626,14626,Fillmore St & Lombard St  , ,37.799707,-122.435952, , 
4627,14627,Fillmore St & Lombard St  , ,37.799595,-122.436051, , 
4628,14628,Fillmore St & Mcallister St  , ,37.77854,-122.431687, , 
4629,14629,Fillmore St & Mcallister St  , ,37.778343,-122.431762, , 
4630,14630,Fillmore St & North Point St  , ,37.803547,-122.436791, , 
4631,14631,Fillmore St & Oak St  , ,37.774268,-122.430825, , 
4632,14632,Fillmore St & Oak St  , ,37.773759,-122.430866, , 
4633,14633,Fillmore St & O'Farrell St  , ,37.783193,-122.432627, , 
4634,14634,Fillmore St & O'Farrell St  , ,37.783019,-122.432699, , 
4635,14635,Fillmore St & Pine St  , ,37.788049,-122.433565, , 
4636,14636,Fillmore St & Pine St  , ,37.787717,-122.433655, , 
4637,14637,Fillmore St & Sacramento St  , ,37.789925,-122.4341, , 
4638,14638,Fillmore St & Sacramento St  , ,37.789744,-122.433947, , 
4640,14640,Fillmore St & Sutter St  , ,37.786051,-122.433244, , 
4641,14641,Fillmore St & Sutter St  , ,37.785814,-122.433268, , 
4642,14642,Fillmore St & Turk St  , ,37.780204,-122.432138, , 
4643,14643,Fillmore St & Union St  , ,37.797391,-122.435489, , 
4645,14645,Fitzgerald Ave & Hawes St   , ,37.719921,-122.389587, , 
4646,14646,Fitzgerald Ave & Ingalls St   , ,37.720966,-122.391453, , 
4647,14647,Fitzgerald Ave & Jennings St   , ,37.722028,-122.39332, , 
4648,14648,Fitzgerald Ave & Keith St   , ,37.722895,-122.394842, , 
4649,14649,Foerster St & Flood Ave  , ,37.729795,-122.448765, , 
4650,14650,Foerster St & Judson Ave  , ,37.728492,-122.448753, , 
4725,14725,Fremont St & Market St   , ,37.791645,-122.398151, , 
4726,14726,Don Chee Way/Steuart St, ,37.794052,-122.393449, , 
4727,14727,Don Chee Way/Steuart St , ,37.793918,-122.393438, , 
4730,14730,Fulton St & 4th Ave  , ,37.773952,-122.461659, , 
4731,14731,Fulton St & 4th Ave  , ,37.77384,-122.46125, , 
4732,14732,Fulton St & 6th Ave  , ,37.773639,-122.463848, , 
4733,14733,Fulton St & 6th Ave  , ,37.773532,-122.463837, , 
4734,14734,Fulton St & 8th Ave  , ,37.77347,-122.466049, , 
4735,14735,Fulton St & 8th Ave  , ,37.773318,-122.465739, , 
4736,14736,Fulton St & 10th Ave  , ,37.77335,-122.46839, , 
4737,14737,Fulton St & 10th Ave  , ,37.77325,-122.46761, , 
4742,14742,Fulton St & 18th Ave  , ,37.772959,-122.476776, , 
4746,14746,Fulton St & 22nd Ave  , ,37.77276,-122.48134, , 
4747,14747,Fulton St & 22nd Ave  , ,37.77266,-122.48061, , 
4748,14748,Fulton St & 25th Ave  , ,37.772591,-122.484306, , 
4749,14749,Fulton St & 25th Ave  , ,37.772547,-122.4841, , 
4751,14751,Fulton St & 28th Ave  , ,37.77235,-122.48717, , 
4753,14753,Fulton St & 30th Ave  , ,37.77224,-122.48919, , 
4755,14755,Geary Blvd & Park Presidio Blvd, ,37.780687,-122.472423, , 
4756,14756,Geary Blvd & Park Presidio Blvd, ,37.780526,-122.472676, , 
4757,14757,Geary St & Powell St, ,37.787401,-122.408391, , 
4758,14758,Geary Blvd & Presidio Ave   , ,37.782536,-122.44669, , 
4760,14760,Geary Blvd & Scott St  , ,37.783847,-122.437761, , 
4761,14761,Geary Blvd & Scott St  , ,37.783624,-122.437669, , 
4762,14762,Geary Blvd & Spruce St  , ,37.781849,-122.453075, , 
4763,14763,Geary Blvd & Spruce St  , ,37.781599,-122.453258, , 
4764,14764,Geary Blvd & Stanyan St  , ,37.78126,-122.456434, , 
4765,14765,Geary Blvd & St Joseph'S Ave  , ,37.782795,-122.442541, , 
4766,14766,Geary St & Stockton St, ,37.787633,-122.406568, , 
4767,14767,Geary St & Taylor St, ,37.786983,-122.411681, , 
4768,14768,Geary Blvd & Van Ness Ave  , ,37.785745,-122.421575, , 
4769,14769,Geary Blvd & Webster St  , ,37.784641,-122.431021, , 
4783,14783,Gilman Ave & 3rd St   , ,37.722458,-122.395415, , 
4784,14784,Gilman Ave & Griffith St   , ,37.718234,-122.388272, , 
4785,14785,Gilman Ave & Ingalls St   , ,37.72035,-122.391729, , 
4786,14786,Gilman Ave & Jennings St   , ,37.721413,-122.393595, , 
4792,14792,Gennessee St & Flood Ave  , ,37.729955,-122.451205, , 
4795,14795,1650 Geneva Ave   , ,37.71187,-122.42819, , 
4796,14796,1650 Geneva Ave   , ,37.71174,-122.42829, , 
4798,14798,1721 Geneva Ave  , ,37.71108,-122.42627, , 
4799,14799,1750 Geneva Ave   , ,37.71072,-122.42576, , 
4803,14803,Geneva Ave/Balboa Park BART, ,37.720801,-122.446738, , 
4805,14805,Geneva Ave/Balboa Park BART, ,37.720952,-122.447379, , 
4808,14808,Geneva Ave & Castelo St   , ,37.7079,-122.41823, , 
4809,14809,Geneva Ave & Castelo St  , ,37.7077,-122.41841, , 
4810,14810,Geneva Ave & Cayuga Ave   , ,37.718927,-122.443554, , 
4811,14811,Geneva Ave & Cayuga Ave   , ,37.718722,-122.443554, , 
4817,14817,Kiska Rd & Reardon Rd  , ,37.73004,-122.37711, , 
4821,14821,Kearny St & Geary St, ,37.788051,-122.403461, , 
4823,14823,Kearny St & North Point St  , ,37.807182,-122.407211, , 
4827,14827,Kirkwood Ave & Dormitory Rd   , ,37.72988,-122.37527, , 
4838,14838,Lake Merced & Middlefield Dr, ,37.729628,-122.486404, , 
4839,14839,Lake Merced & Middlefield Dr, ,37.729441,-122.48629, , 
4842,14842,La Playa St & Cabrillo St  , ,37.773214,-122.509991, , 
4843,14843,La Playa St & Cabrillo St  , ,37.773214,-122.51006, , 
4844,14844,La Playa St & Fulton St  , ,37.77169,-122.50984, , 
4845,14845,Larkin St & Beach St  , ,37.806348,-122.422083, , 
4846,14846,Larkin St & Eddy St  , ,37.783228,-122.417415, , 
4847,14847,Larkin St & Golden Gate Ave  , ,37.781693,-122.417106, , 
4848,14848,Larkin St & Grove St  , ,37.778901,-122.416545, , 
4851,14851,Larkin St & O'Farrell St  , ,37.785084,-122.417792, , 
4852,14852,Lawton St & 7th Ave  , ,37.758605,-122.464086, , 
4853,14853,Lawton St & 7th Ave  , ,37.758471,-122.463879, , 
4854,14854,Lawton St & 9th Ave  , ,37.758524,-122.465804, , 
4876,14876,Laguna Honda Blvd & Balceta Ave, ,37.74537,-122.45709, , 
4877,14877,Laguna Honda Blvd & Balceta Ave, ,37.74529,-122.45718, , 
4878,14878,Laguna Honda Blvd & Clarendon Ave, ,37.751119,-122.461346, , 
4881,14881,Geneva Ave & Howth St   , ,37.722121,-122.449979, , 
4882,14882,Geneva Ave & Howth St   , ,37.721978,-122.45007, , 
4883,14883,Geneva Ave & Madrid St   , ,37.714768,-122.437587, , 
4884,14884,Geneva Ave & Madrid St   , ,37.715143,-122.438034, , 
4886,14886,Geneva Ave & Mission St   , ,37.716473,-122.440874, , 
4888,14888,Geneva Ave & Munich St   , ,37.712948,-122.43303, , 
4889,14889,Geneva Ave & Moscow St   , ,37.713332,-122.433957, , 
4890,14890,Geneva Ave & Naples St   , ,37.714358,-122.436339, , 
4891,14891,Geneva Ave & Naples St   , ,37.714028,-122.435961, , 
4894,14894,Geneva Ave & Prague St   , ,37.712832,-122.431805, , 
4895,14895,Geneva Ave & Rio Verde St  , ,37.706939,-122.415534, , 
4898,14898,Geneva Ave & San Jose Ave  , ,37.720783,-122.447184, , 
4899,14899,Geneva Ave & Santos St   , ,37.708368,-122.419954, , 
4900,14900,Geneva Ave & Santos St   , ,37.708484,-122.420354, , 
4905,14905,Gough St & Sacramento St  , ,37.791041,-122.425771, , 
4908,14908,Grafton Ave & Capitol Ave  , ,37.719953,-122.45929, , 
4910,14910,Grafton Ave & Granada Ave  , ,37.719962,-122.457251, , 
4912,14912,Grafton Ave & Jules Ave  , ,37.719952,-122.461329, , 
4915,14915,Grafton Ave & Plymouth Ave  , ,37.719962,-122.456232, , 
4934,14934,Gateview Ave & Bayside Dr, ,37.829848,-122.375254, , 
4935,14935,Gateview Ave & Mason Ct  , ,37.828181,-122.377217, , 
4936,14936,Gateview Ave & Northpoint Dr, ,37.82982,-122.373477, , 
4937,14937,Hahn St & Sunnydale Ave  , ,37.71201,-122.4159, , 
4938,14938,Hahn St & Sunnydale Ave, ,37.712025,-122.416047, , 
4940,14940,Haight St & Baker St  , ,37.770928,-122.440261, , 
4943,14943,Haight St & Buena Vista East Ave , ,37.770749,-122.440548, , 
4946,14946,Haight St & Clayton St  , ,37.769893,-122.448467, , 
4947,14947,Haight St & Clayton St  , ,37.769714,-122.448662, , 
4950,14950,Haight St & Divisadero St  , ,37.771293,-122.437373, , 
4951,14951,Haight St & Divisadero St  , ,37.771231,-122.436743, , 
4952,14952,Haight St & Fillmore St  , ,37.77214,-122.43076, , 
4957,14957,Haight St & Masonic Ave  , ,37.770232,-122.445476, , 
4958,14958,Haight St & Masonic Ave  , ,37.770196,-122.445292, , 
4960,14960,Haight St & Pierce St  , ,37.771721,-122.434038, , 
4961,14961,Haight St & Pierce St  , ,37.771605,-122.433854, , 
4968,14968,Harrison St & 4th St   , ,37.780671,-122.399913, , 
4969,14969,Harrison St & 5th St   , ,37.778914,-122.402137, , 
4970,14970,Harrison St & 6th St   , ,37.777148,-122.404362, , 
4976,14976,Hawes St & Gilman Ave   , ,37.719198,-122.390012, , 
5017,15017,Hermann St & Fillmore St  , ,37.770307,-122.429929, , 
5018,15018,Hermann St & Fillmore St  , ,37.770248,-122.429701, , 
5029,15029,Holyoke St & Wayland St  , ,37.72522,-122.40812, , 
5030,15030,Holyoke St & Wayland St  , ,37.72507,-122.40798, , 
5034,15034,Holloway Ave & Beverly St  , ,37.72161,-122.471797, , 
5036,15036,Holloway Ave & Junipero Serra Blvd, ,37.721592,-122.472954, , 
5037,15037,Holloway Ave & Junipero Serra Blvd, ,37.721485,-122.472713, , 
5041,15041,Hudson Ave & 3rd St   , ,37.740336,-122.388724, , 
5042,15042,Hudson Ave & Ardath Ct  , ,37.73469,-122.38305, , 
5043,15043,Hudson Ave & Cashmere St   , ,37.73596,-122.38353, , 
5044,15044,Hudson Ave & Ingalls St  , ,37.732497,-122.37991, , 
5045,15045,Hudson Ave & Ingalls St  , ,37.73239,-122.379692, , 
5046,15046,Hudson Ave & Keith St   , ,37.7377,-122.38412, , 
5047,15047,Hudson Ave & Keith St   , ,37.73759,-122.38416, , 
5048,15048,Hudson Ave & Mendell St   , ,37.73896,-122.38628, , 
5049,15049,Hudson Ave & Mendell St   , ,37.739,-122.38654, , 
5050,15050,Hudson Ave & Whitney Young Cir, ,37.733319,-122.381845, , 
5051,15051,Hudson Ave & Whitney Young Cir, ,37.733355,-122.38212, , 
5071,15071,Hyde St & Fulton St  , ,37.779364,-122.415135, , 
5079,15079,Hyde St & Mcallister St  , ,37.780783,-122.415421, , 
5087,15087,Hyde St & Turk St  , ,37.782648,-122.415799, , 
5092,15092,Industrial St & Bay Shore Blvd, ,37.738148,-122.406539, , 
5093,15093,Industrial St & Bay Shore Blvd, ,37.737943,-122.40678, , 
5094,15094,Industrial St & Elmira St  , ,37.73879,-122.40373, , 
5095,15095,Industrial St & Palou Ave   , ,37.73955,-122.40101, , 
5096,15096,Industrial St & Revere Ave  , ,37.73913,-122.40305, , 
5097,15097,Innes Ave & Earl St   , ,37.729878,-122.371871, , 
5098,15098,Innes Ave & Earl St   , ,37.729869,-122.372134, , 
5099,15099,Innes Ave & Fitch St   , ,37.730941,-122.37376, , 
5100,15100,Innes Ave & Fitch St   , ,37.730932,-122.374035, , 
5101,15101,Innes Ave & Griffith St   , ,37.732004,-122.375614, , 
5102,15102,Innes Ave & Griffith St   , ,37.73199,-122.37588, , 
5103,15103,Innes Ave & Hunters Point Blvd , ,37.732915,-122.377229, , 
5104,15104,Innes Ave & Hunters Point Blvd , ,37.732709,-122.377172, , 
5106,15106,Ingalls St & Beatrice Ln   , ,37.73058,-122.38034, , 
5107,15107,Ingalls St & Harbor Rd  , ,37.73347,-122.380023, , 
5108,15108,Ingalls St & Harbor Rd  , ,37.7333,-122.37984, , 
5110,15110,Ingalls St & Revere Ave   , ,37.72837,-122.3846, , 
5111,15111,Ingalls St & Thomas Ave   , ,37.72735,-122.38563, , 
5112,15112,Ingalls St & Thomas Ave   , ,37.72711,-122.38572, , 
5113,15113,Ingalls St & Van Dyke Ave   , ,37.726041,-122.386685, , 
5114,15114,Ingalls St & Van Dyke Ave   , ,37.72611,-122.38677, , 
5115,15115,Ingerson Ave & Griffith St   , ,37.717012,-122.389212, , 
5116,15116,Ingerson Ave & Hawes St   , ,37.718039,-122.390998, , 
5118,15118,Irving St & 2nd Ave  , ,37.764441,-122.458643, , 
5119,15119,Irving St & 4th Ave  , ,37.764299,-122.460824, , 
5120,15120,Irving St & 4th Ave  , ,37.764226,-122.461061, , 
5121,15121,Irving St & 7th Ave  , ,37.764155,-122.464034, , 
5122,15122,Irving St & 7th Ave  , ,37.764092,-122.464282, , 
5124,15124,Irving St & Arguello Blvd  , ,37.764366,-122.458024, , 
5134,15134,Junipero Serra Blvd & Brotherhood Way, ,37.71355,-122.47126, , 
5135,15135,Junipero Serra Blvd / S.F. Golf Club, ,37.710707,-122.471324, , 
5136,15136,Junipero Serra Blvd & Font Blvd, ,37.71463,-122.47191, , 
5138,15138,Junipero Serra Blvd & Ocean Ave, ,37.731363,-122.471674, , 
5140,15140,Junipero Serra Blvd & Palmetto Av, ,37.71091,-122.47099, , 
5141,15141,Junipero Serra Blvd & Sloat Blvd , ,37.734307,-122.471675, , 
5145,15145,Jackson St & Divisadero St  , ,37.791724,-122.440888, , 
5147,15147,Jackson St & Fillmore St  , ,37.792529,-122.434676, , 
5160,15160,Jackson St & Scott St  , ,37.791932,-122.43924, , 
5161,15161,Jackson St & Scott St  , ,37.791772,-122.439612, , 
5162,15162,Jackson St & Steiner St  , ,37.79235,-122.436109, , 
5163,15163,Jackson St & Steiner St  , ,37.792201,-122.43632, , 
5165,15165,Jackson St & Van Ness Ave  , ,37.793999,-122.422867, , 
5167,15167,Jackson St & Webster St  , ,37.792716,-122.433025, , 
5171,15171,Judson Ave & Gennessee St  , ,37.728421,-122.451285, , 
5172,15172,Judson Ave & Gennessee St  , ,37.728296,-122.451228, , 
5173,15173,Jefferson St & Divisadero St  , ,37.804557,-122.443892, , 
5174,15174,Jefferson St & Powell St  , ,37.808594,-122.413357, , 
5175,15175,Jefferson St & Taylor St  , ,37.80832,-122.415514, , 
5184,15184,Jones St & Beach St  , ,37.807132,-122.417324, , 
5189,15189,Judah St & 5th Ave  , ,37.762299,-122.462001, , 
5190,15190,Judah St & 6th Ave  , ,37.762397,-122.462849, , 
5191,15191,Judah St & 7th Ave  , ,37.762334,-122.46435, , 
5192,15192,Judah St & 7th Ave  , ,37.762201,-122.464144, , 
5193,15193,Judah St & 9th Ave  , ,37.762227,-122.466688, , 
5194,15194,Judah St & 9th Ave  , ,37.762139,-122.466312, , 
5195,15195,Judah St & 12th Ave  , ,37.762069,-122.469324, , 
5196,15196,Judah St & 12th Ave  , ,37.761988,-122.469526, , 
5197,15197,Judah St & 15th Ave  , ,37.761848,-122.472777, , 
5198,15198,Judah St & 16th Ave   , ,37.76194,-122.473632, , 
5199,15199,Judah St & 19th Ave  , ,37.761743,-122.476921, , 
5200,15200,Judah St & 19th Ave  , ,37.761655,-122.477194, , 
5201,15201,Judah St & 22nd Ave  , ,37.761534,-122.479855, , 
5202,15202,Judah St & 23rd Ave  , ,37.761547,-122.481164, , 
5203,15203,Judah St & 25th Ave  , ,37.761452,-122.4833, , 
5204,15204,Judah St & 25th Ave  , ,37.761373,-122.48356, , 
5205,15205,Judah St & 28th Ave  , ,37.76131,-122.48651, , 
5206,15206,Judah St & 28th Ave  , ,37.761232,-122.486763, , 
5207,15207,Judah St & 31st Ave  , ,37.761172,-122.489719, , 
5208,15208,Judah St & 31st Ave  , ,37.761105,-122.4895, , 
5209,15209,Judah St & 34th Ave  , ,37.761028,-122.49293, , 
5210,15210,Judah St & 34th Ave  , ,37.760955,-122.493199, , 
5211,15211,Judah St & 40th Ave  , ,37.760743,-122.499359, , 
5212,15212,Judah St & 40th Ave  , ,37.760679,-122.499154, , 
5213,15213,Judah St & 43rd Ave  , ,37.760598,-122.502574, , 
5214,15214,Judah St & 43rd Ave  , ,37.760518,-122.502839, , 
5215,15215,Judah St & 46th Ave  , ,37.760493,-122.505832, , 
5216,15216,Judah St & 46th Ave  , ,37.760392,-122.506064, , 
5219,15219,Judah St & Funston Ave  , ,37.762075,-122.470329, , 
5220,15220,Judah St & Funston Ave  , ,37.76195,-122.470572, , 
5221,15221,Judah/La Playa/Ocean Beach  , ,37.760363,-122.509011, , 
5223,15223,Judah/La Playa/Ocean Beach, ,37.760304,-122.508181, , 
5224,15224,Judah St & Sunset Blvd  , ,37.760917,-122.495668, , 
5225,15225,Judah St & Sunset Blvd  , ,37.760845,-122.495805, , 
5226,15226,Kansas St & 17th St  , ,37.76482,-122.403617, , 
5227,15227,Kansas St & 23rd St  , ,37.75443,-122.402485, , 
5228,15228,Kansas St & 25th St  , ,37.751887,-122.402223, , 
5229,15229,Kansas St & 26th St  , ,37.750834,-122.402121, , 
5232,15232,Keith St & Oakdale Ave   , ,37.732581,-122.386634, , 
5233,15233,Keith St & Oakdale Ave   , ,37.732367,-122.386611, , 
5235,15235,King St & 2nd St   , ,37.7796,-122.38955, , 
5236,15236,King St & 2nd St   , ,37.7798,-122.38994, , 
5242,15242,Kiska Rd & Ingalls St   , ,37.73108,-122.37939, , 
5243,15243,Laguna Honda Blvd & Clarendon Ave, ,37.750709,-122.460922, , 
5244,15244,Laguna Honda Blvd & Dewey Blvd , ,37.747229,-122.459076, , 
5245,15245,Laguna Honda Blvd/opp Forest Hill, ,37.748327,-122.458836, , 
5247,15247,Laguna Honda Blvd/Forest Hill Sta, ,37.748211,-122.458905, , 
5249,15249,Laguna Honda Blvd & Idora Ave  , ,37.743999,-122.456407, , 
5250,15250,Laguna Honda Blvd & Idora Ave  , ,37.74415,-122.45663, , 
5253,15253,1798 Laguna Honda Blvd, ,37.754652,-122.463798, , 
5254,15254,Laguna Honda Blvd & Portola Dr , ,37.74311,-122.45548, , 
5255,15255,Laguna Honda Blvd & Ulloa St   , ,37.743473,-122.455776, , 
5256,15256,Laguna Honda Blvd & Vasquez Ave, ,37.74602,-122.45816, , 
5263,15263,Lincoln Blvd & Bowley St  , ,37.788393,-122.482457, , 
5269,15269,Lincoln Blvd & Pershing Dr   , ,37.792088,-122.480968, , 
5272,15272,Lombard St & Divisadero St  , ,37.798882,-122.442735, , 
5273,15273,Lombard St & Divisadero St  , ,37.799078,-122.442861, , 
5274,15274,Lombard St & Fillmore St  , ,37.799711,-122.43613, , 
5275,15275,Lombard St & Fillmore St  , ,37.799881,-122.435958, , 
5280,15280,Lombard St & Laguna St  , ,37.80057,-122.43101, , 
5281,15281,Lombard St & Laguna St  , ,37.80037,-122.43121, , 
5284,15284,Lombard St & Pierce St  , ,37.799292,-122.439421, , 
5285,15285,Lombard St & Pierce St  , ,37.799542,-122.439192, , 
5288,15288,La Salle Ave & Ingalls St  , ,37.73077,-122.3814, , 
5289,15289,La Salle Ave & Newcomb Ave   , ,37.73298,-122.38479, , 
5290,15290,La Salle Ave & Osceola Dr  , ,37.73137,-122.38172, , 
5304,15304,Lincoln Way & 15th Ave  , ,37.765715,-122.473221, , 
5305,15305,Lincoln Way & 15th Ave  , ,37.76556,-122.47305, , 
5306,15306,Lincoln Way & 17th Ave  , ,37.765616,-122.475421, , 
5307,15307,Lincoln Way & 17th Ave  , ,37.76546,-122.47524, , 
5309,15309,Lincoln Way & 19th Ave  , ,37.765526,-122.47761, , 
5310,15310,Lincoln Way & 21st Ave  , ,37.765428,-122.479696, , 
5311,15311,Lincoln Way & 21st Ave  , ,37.765285,-122.479489, , 
5312,15312,Lincoln Way & 23rd Ave  , ,37.765329,-122.481839, , 
5313,15313,Lincoln Way & 23rd Ave  , ,37.765195,-122.481632, , 
5314,15314,Lincoln Way & 25th Ave  , ,37.765221,-122.483993, , 
5315,15315,Lincoln Way & 25th Ave  , ,37.765105,-122.483363, , 
5316,15316,Lincoln Way & 27th Ave  , ,37.765131,-122.486136, , 
5317,15317,Lincoln Way & 27th Ave  , ,37.765016,-122.485506, , 
5318,15318,Lincoln Way & 29th Ave  , ,37.765032,-122.488267, , 
5319,15319,Lincoln Way & 30th Ave  , ,37.764881,-122.488714, , 
5320,15320,Lincoln Way & 31st Ave  , ,37.764943,-122.490422, , 
5321,15321,Lincoln Way & 33rd Ave  , ,37.764844,-122.492565, , 
5323,15323,Lincoln Way & 35th Ave  , ,37.764754,-122.494708, , 
5326,15326,Lincoln Way & Funston Ave  , ,37.765813,-122.471032, , 
5330,15330,Lyell St & Alemany Blvd  , ,37.730641,-122.431331, , 
5335,15335,Main St & Mission St   , ,37.791991,-122.395033, , 
5336,15336,Main St & Market St  , ,37.79253,-122.39567, , 
5337,15337,Mansell St & Brussels St  , ,37.721096,-122.403067, , 
5338,15338,Mansell St & Brussels St   , ,37.720926,-122.403124, , 
5339,15339,Mansell St & Dartmouth St   , ,37.719581,-122.408886, , 
5340,15340,Mansell St & Dartmouth St   , ,37.719376,-122.409058, , 
5341,15341,Mansell St & Goettingen St   , ,37.720677,-122.404098, , 
5342,15342,Mansell St & Goettingen St   , ,37.720766,-122.404338, , 
5343,15343,Mansell St & Hamilton St   , ,37.720098,-122.406916, , 
5344,15344,Mansell St & Hamilton St   , ,37.719892,-122.407088, , 
5345,15345,Mansell St & John F Shelley Dr, ,37.718119,-122.414464, , 
5346,15346,Mansell St & John F Shelley Dr, ,37.718039,-122.414258, , 
5347,15347,Mansell St & John F Shelley Dr, ,37.718897,-122.418804, , 
5348,15348,Mansell St & John F Shelley Dr, ,37.718718,-122.418633, , 
5349,15349,Mansell St & San Bruno Ave   , ,37.721443,-122.401154, , 
5350,15350,Mansell St & San Bruno Ave   , ,37.721541,-122.401394, , 
5351,15351,Mansell St & Somerset St   , ,37.720418,-122.405094, , 
5352,15352,Mansell St & Somerset St   , ,37.720525,-122.405117, , 
5353,15353,Mansell St & University St   , ,37.718957,-122.411257, , 
5354,15354,Mansell St & Visitacion Ave   , ,37.71877,-122.41136, , 
5384,15384,Mcallister St & Baker St  , ,37.777397,-122.441659, , 
5385,15385,Mcallister St & Baker St  , ,37.77731,-122.44185, , 
5389,15389,Mcallister St & Divisadero St , ,37.777825,-122.438289, , 
5390,15390,Mcallister St & Divisadero St , ,37.77773,-122.43851, , 
5391,15391,Mcallister St & Fillmore St  , ,37.77864,-122.43207, , 
5392,15392,Mcallister St & Fillmore St  , ,37.778618,-122.431744, , 
5393,15393,Mcallister St & Gough St  , ,37.779714,-122.423881, , 
5394,15394,Mcallister St & Gough St  , ,37.779634,-122.42325, , 
5395,15395,Mcallister St & Hyde St  , ,37.78073,-122.41569, , 
5396,15396,Mcallister St & Hyde St   , ,37.78061,-122.41587, , 
5397,15397,Mcallister St & Larkin St  , ,37.78051,-122.41741, , 
5398,15398,Mcallister St & Laguna St  , ,37.779304,-122.42717, , 
5399,15399,Mcallister St & Laguna St  , ,37.779206,-122.42701, , 
5400,15400,Mcallister St & Pierce St  , ,37.778244,-122.435045, , 
5401,15401,Mcallister St & Pierce St  , ,37.77815,-122.43519, , 
5404,15404,Mcallister St & Van Ness Ave  , ,37.78009,-122.42071, , 
5405,15405,Mcallister St & Van Ness Ave  , ,37.780052,-122.420178, , 
5432,15432,Monterey Blvd & Foerster St  , ,37.731615,-122.449166, , 
5434,15434,Monterey Blvd & Gennessee St  , ,37.731472,-122.451239, , 
5435,15435,Monterey Blvd & Gennessee St  , ,37.731615,-122.451445, , 
5437,15437,Monterey Blvd & Plymouth Ave  , ,37.731115,-122.457322, , 
5439,15439,Monterey Blvd & Ridgewood Ave , ,37.731615,-122.453289, , 
5440,15440,Monterey Blvd & Ridgewood Ave , ,37.731472,-122.453083, , 
5444,15444,Monterey Blvd & Valdez Ave  , ,37.731445,-122.455649, , 
5445,15445,Monterey Blvd & Valdez Ave  , ,37.731267,-122.455832, , 
5458,15458,North Point St & Hyde St  , ,37.805803,-122.420226, , 
5459,15459,North Point St & Hyde St  , ,37.805633,-122.420467, , 
5460,15460,North Point St & Jones St  , ,37.806168,-122.417405, , 
5461,15461,North Point St & Jones St  , ,37.806052,-122.417176, , 
5462,15462,North Point St & Kearny St  , ,37.80735,-122.4079, , 
5464,15464,North Point St & Larkin St  , ,37.80559,-122.42189, , 
5465,15465,North Point St & Larkin St  , ,37.805411,-122.422106, , 
5466,15466,North Point St & Mason St  , ,37.80656,-122.41424, , 
5467,15467,North Point St & Mason St  , ,37.806524,-122.41346, , 
5468,15468,North Point St & Polk St  , ,37.805313,-122.423987, , 
5469,15469,North Point St & Polk St  , ,37.805241,-122.423494, , 
5470,15470,North Point St & Stockton St  , ,37.80704,-122.41038, , 
5472,15472,North Point St & Van Ness Ave , ,37.805045,-122.42495, , 
5474,15474,Naples St & Athens St   , ,37.712457,-122.437347, , 
5475,15475,Naples St & Brunswick St  , ,37.711797,-122.437989, , 
5477,15477,Naples St & Curtis St   , ,37.711083,-122.438504, , 
5480,15480,Naples St & Geneva Ave   , ,37.714153,-122.436397, , 
5482,15482,Naples St & Rolph St   , ,37.713457,-122.436626, , 
5483,15483,Naples St & Rolph St   , ,37.713484,-122.436786, , 
5485,15485,Naples St & Seville St  , ,37.711672,-122.437897, , 
5486,15486,Newcomb Ave & Keith St   , ,37.733152,-122.38598, , 
5487,15487,Newcomb Ave & Keith St   , ,37.733,-122.386049, , 
5488,15488,Newcomb Ave & La Salle Ave   , ,37.733044,-122.384858, , 
5489,15489,Newcomb Ave & La Salle Ave   , ,37.733196,-122.385052, , 
5490,15490,Newcomb Ave & Newhall St   , ,37.736304,-122.391522, , 
5491,15491,Newhall St & Oakdale Ave   , ,37.735796,-122.392175, , 
5500,15500,Middle Point Rd & Innes Ave  , ,37.734174,-122.379541, , 
5501,15501,Middle Point Rd & West Point Rd, ,37.737011,-122.379321, , 
5503,15503,Middle Point Rd & West Point Rd, ,37.735164,-122.379323, , 
5504,15504,Middle Point Rd & West Point Rd, ,37.73502,-122.37947, , 
5505,15505,Mendell St & Cargo Way   , ,37.7437,-122.38317, , 
5507,15507,Mendell St & Newhall St  , ,37.74254,-122.3837, , 
5508,15508,Mendell St & Newhall St  , ,37.74253,-122.38393, , 
5509,15509,MENDELL ST/US POST OFFICE, ,37.74106,-122.38444, , 
5510,15510,MENDELL ST/Opposite US POST OFFICE, ,37.741056,-122.384679, , 
5511,15511,V.A. HOSPITAL, ,37.781827,-122.504106, , 
5513,15513,126 Miraloma Dr  , ,37.737744,-122.461458, , 
5514,15514,Miraloma Dr & Bengal Aly  , ,37.737869,-122.461309, , 
5515,15515,Miraloma Dr & Juanita Way  , ,37.739377,-122.460083, , 
5516,15516,Miraloma Dr & Juanita Way   , ,37.739199,-122.460026, , 
5517,15517,Miraloma Dr & Marne Ave  , ,37.740082,-122.459224, , 
5518,15518,Miraloma Dr & Marne Ave   , ,37.740207,-122.45927, , 
5519,15519,Miraloma Dr & Yerba Buena Ave , ,37.735505,-122.460804, , 
5528,15528,Mission St & 1st St   , ,37.78992,-122.39749, , 
5529,15529,Mission St & 2nd St   , ,37.78775,-122.40024, , 
5530,15530,Mission St & 2nd St   , ,37.78787,-122.39985, , 
5531,15531,Mission St & 3rd St   , ,37.78651,-122.40157, , 
5532,15532,Mission St & 3rd St   , ,37.78597,-122.40249, , 
5533,15533,Mission St & 4th St   , ,37.78464,-122.40393, , 
5534,15534,Mission St & 4th St   , ,37.78436,-122.40452, , 
5535,15535,Mission St & 5th St   , ,37.782716,-122.406525, , 
5536,15536,Mission St & 5th St   , ,37.782725,-122.40664, , 
5537,15537,Mission St & 6th St   , ,37.78119,-122.40831, , 
5538,15538,Mission St & 6th St   , ,37.78075,-122.4091, , 
5539,15539,Mission St & 7th St   , ,37.77897,-122.41135, , 
5540,15540,Mission St & 8th St   , ,37.77723,-122.41355, , 
5541,15541,Mission St & 8th St   , ,37.7777,-122.41273, , 
5542,15542,Mission St & 9th St   , ,37.77645,-122.41431, , 
5543,15543,Mission St & 9th St   , ,37.77594,-122.41518, , 
5544,15544,Mission St & 11th St   , ,37.774323,-122.41712, , 
5545,15545,Mission St & 11th St   , ,37.774306,-122.417292, , 
5546,15546,Mission St & 13th St  , ,37.77047,-122.41978, , 
5547,15547,Mission St & 14th St  , ,37.76862,-122.41993, , 
5548,15548,Mission St & 14th St  , ,37.7678,-122.42002, , 
5551,15551,Mission St & 16th St  , ,37.765125,-122.419668, , 
5552,15552,Mission St & 16th St  , ,37.765036,-122.419726, , 
5553,15553,Mission St & 18th St  , ,37.762635,-122.419348, , 
5554,15554,Mission St & 18th St  , ,37.761761,-122.419463, , 
5557,15557,Mission St & 20th St  , ,37.75911,-122.41902, , 
5558,15558,Mission St & 20th St  , ,37.75817,-122.41909, , 
5561,15561,Mission St & 22nd St  , ,37.75582,-122.41871, , 
5562,15562,Mission St & 22nd St  , ,37.75517,-122.4188, , 
5565,15565,Mission St & 24th St  , ,37.752356,-122.418401, , 
5566,15566,Mission St & 24th St  , ,37.751964,-122.418528, , 
5567,15567,Mission St & 26th St  , ,37.74951,-122.4181, , 
5568,15568,Mission St & 26th St  , ,37.74857,-122.41818, , 
5571,15571,Mission St & 30th St    , ,37.742408,-122.421945, , 
5572,15572,Mission St & 30th St   , ,37.742417,-122.421991, , 
5573,15573,4080 Mission St  , ,37.73217,-122.428, , 
5574,15574,Mission St & Acton St   , ,37.708808,-122.452578, , 
5575,15575,Mission St & Allison St   , ,37.71448,-122.44264, , 
5577,15577,Mission St & Appleton Ave   , ,37.738867,-122.423871, , 
5578,15578,Mission St & Appleton Ave   , ,37.73899,-122.42404, , 
5579,15579,Mission St & Beale St   , ,37.791144,-122.395916, , 
5580,15580,Mission St & Bosworth St  , ,37.73334,-122.42682, , 
5583,15583,Mission St & Cortland Ave   , ,37.741052,-122.422759, , 
5584,15584,Mission St & Cortland Ave   , ,37.741079,-122.422874, , 
5585,15585,Mission St & Evergreen St   , ,37.70741,-122.45653, , 
5586,15586,Mission St & Excelsior Ave   , ,37.726355,-122.43351, , 
5588,15588,Mission St & Flournoy St   , ,37.70682,-122.45906, , 
5589,15589,Mission St & Foote Ave   , ,37.71285,-122.44462, , 
5590,15590,Mission St & Francis St   , ,37.72635,-122.43365, , 
5592,15592,Mission St & Geneva Ave   , ,37.716455,-122.441149, , 
5593,15593,Mission St & Geneva Ave   , ,37.716642,-122.440782, , 
5594,15594,Mission St & GoeThe St   , ,37.70736,-122.45708, , 
5595,15595,Mission St & Guttenberg St  , ,37.71251,-122.44475, , 
5596,15596,Mission St & Highland Ave  , ,37.737448,-122.423963, , 
5597,15597,Mission St & Highland Ave  , ,37.73706,-122.4242, , 
5598,15598,Mission St & Italy Ave   , ,37.71915,-122.439087, , 
5599,15599,Mission St & Italy Ave   , ,37.71865,-122.439259, , 
5600,15600,Mission St & Lawrence Ave   , ,37.7095,-122.45087, , 
5601,15601,Mission St & Lowell St   , ,37.711468,-122.446291, , 
5602,15602,Mission St & Lowell St   , ,37.711432,-122.446486, , 
5603,15603,Mission St & Main St   , ,37.791965,-122.39493, , 
5604,15604,Mission St & Mt Vernon Ave   , ,37.7147,-122.44265, , 
5605,15605,Mission St & Murray St   , ,37.73404,-122.42592, , 
5608,15608,Mission St & Oliver St   , ,37.70962,-122.45006, , 
5609,15609,Mission St & Onondaga Ave   , ,37.721282,-122.437483, , 
5610,15610,Mission St & Persia Ave   , ,37.72338,-122.43568, , 
5613,15613,Mission St & Richland Ave  , ,37.73591,-122.42442, , 
5614,15614,Mission St & Richland Ave  , ,37.73562,-122.4247, , 
5615,15615,Mission St & Russia Ave   , ,37.721469,-122.437117, , 
5616,15616,Mission St & Ruth St   , ,37.723263,-122.435971, , 
5619,15619,Mission St & Sickles Ave   , ,37.70866,-122.45332, , 
5620,15620,Mission St & Silver Ave   , ,37.728723,-122.43132, , 
5621,15621,Mission St & Silver Ave   , ,37.728723,-122.431354, , 
5623,15623,Mission St & Spear St   , ,37.79239,-122.39435, , 
5624,15624,Mission St & Trumbull St  , ,37.73066,-122.42927, , 
5625,15625,Mission St & Trumbull St   , ,37.73045,-122.42971, , 
5626,15626,Mission St & Valencia St   , ,37.74508,-122.4203, , 
5627,15627,Mission St & Whittier St   , ,37.71048,-122.44834, , 
5628,15628,Mission St & Whittier St   , ,37.71022,-122.44845, , 
5630,15630,Munich St & Cordova Ave  , ,37.71094,-122.435435, , 
5631,15631,Munich St & Geneva Ave   , ,37.71293,-122.43295, , 
5632,15632,Munich St & Naples St  , ,37.711155,-122.438241, , 
5633,15633,Galvez Ave & Horne Ave, ,37.728795,-122.367027, , 
5638,15638,Market St & 1st St   , ,37.790896,-122.399138, , 
5639,15639,Market St & 2nd St   , ,37.789353,-122.401306, , 
5640,15640,Market St & 3rd St   , ,37.787525,-122.403519, , 
5641,15641,Market St & 3rd St   , ,37.787667,-122.403359, , 
5642,15642,Market St & 4th St  , ,37.786597,-122.404586, , 
5643,15643,Market St & 4th St   , ,37.785705,-122.405847, , 
5644,15644,Market St & 4th St  , ,37.78484,-122.406834, , 
5645,15645,Market St & 5th St   , ,37.783886,-122.408141, , 
5646,15646,Market St & 5th St  , ,37.783395,-122.408657, , 
5647,15647,Market St & 6th St   , ,37.782102,-122.4104, , 
5648,15648,Market St & 6th St  , ,37.78129,-122.411329, , 
5650,15650,Market St & 7th St   , ,37.780363,-122.412613, , 
5651,15651,Market St & 8th St   , ,37.778606,-122.414826, , 
5652,15652,Market St & 9th St   , ,37.77741,-122.41634, , 
5654,15654,Market St & 16th St   , ,37.76391,-122.43366, , 
5655,15655,Market St & 5th  St   , ,37.784082,-122.407992, , 
5656,15656,Market St & 7th St   , ,37.780568,-122.412441, , 
5657,15657,Market St & Battery St   , ,37.79111,-122.399069, , 
5658,15658,Market St & Beale St   , ,37.792572,-122.397016, , 
5659,15659,Market St & Buchanan St   , ,37.769786,-122.426149, , 
5661,15661,Market St & Church St   , ,37.767705,-122.428778, , 
5662,15662,Market St & Church St   , ,37.76725,-122.429214, , 
5663,15663,Market St & Clayton St  , ,37.758409,-122.444055, , 
5665,15665,Market St & Castro St   , ,37.76246,-122.435449, , 
5667,15667,Market St & 17th St, ,37.763022,-122.434979, , 
5668,15668,Market St & Dolores St   , ,37.76888,-122.427103, , 
5669,15669,Market St & Drumm St   , ,37.793473,-122.396178, , 
5672,15672,Market St & Gough St   , ,37.773269,-122.421768, , 
5673,15673,Market St & Gough St   , ,37.772875,-122.421991, , 
5674,15674,Market St & Grant Ave   , ,37.78639,-122.40516, , 
5675,15675,Market St & Guerrero St   , ,37.77057,-122.424971, , 
5676,15676,Market St & Hyde St   , ,37.779105,-122.414379, , 
5678,15678,Market St & Kearny St   , ,37.78773,-122.40337, , 
5680,15680,Market St & Larkin St   , ,37.777598,-122.416236, , 
5681,15681,Market St & Laguna St   , ,37.770953,-122.424666, , 
5683,15683,Market St & Mason St   , ,37.78285,-122.40964, , 
5684,15684,Market St & Montgomery St   , ,37.78849,-122.40248, , 
5685,15685,Market St & New Montgomery St  , ,37.788613,-122.402163, , 
5687,15687,Market St & Noe St   , ,37.763958,-122.433323, , 
5688,15688,Market St & Powell St   , ,37.784474,-122.407544, , 
5689,15689,Market St & Sansome St   , ,37.790013,-122.400491, , 
5690,15690,Market St & Sanchez St   , ,37.766185,-122.430707, , 
5691,15691,Market St & Sanchez St   , ,37.765689,-122.43114, , 
5692,15692,Market St & South Van Ness Ave , ,37.775056,-122.419321, , 
5693,15693,Market St & Steuart St   , ,37.79426,-122.39491, , 
5694,15694,Market St & Stockton St   , ,37.785777,-122.405859, , 
5695,15695,Market St & Taylor St   , ,37.782316,-122.410228, , 
5696,15696,Market St & Van Ness Ave   , ,37.775198,-122.419252, , 
5698,15698,Moscow St & Brazil Ave   , ,37.72136,-122.42762, , 
5699,15699,Moscow St & Excelsior Ave   , ,37.7229,-122.42647, , 
5700,15700,Moscow St & France Ave   , ,37.71669,-122.43113, , 
5702,15702,Moscow St & Italy Ave   , ,37.71513,-122.4323, , 
5703,15703,Moscow St & Persia Ave   , ,37.719823,-122.42876, , 
5705,15705,Masonic Ave & Fulton St  , ,37.775577,-122.446553, , 
5706,15706,Masonic Ave & Fulton St  , ,37.77571,-122.44636, , 
5709,15709,Masonic Ave & Geary Blvd  , ,37.782527,-122.447218, , 
5710,15710,Masonic Ave & Geary Blvd  , ,37.782144,-122.447573, , 
5712,15712,Masonic Ave & Haight St  , ,37.77031,-122.44542, , 
5713,15713,Masonic Ave & Haight St  , ,37.770348,-122.445304, , 
5714,15714,Masonic Ave & Hayes St  , ,37.77406,-122.446049, , 
5715,15715,Masonic Ave & Hayes St  , ,37.77402,-122.44624, , 
5716,15716,Masonic Ave & Oak St  , ,37.771963,-122.445625, , 
5717,15717,Masonic Ave & Oak St  , ,37.77173,-122.44573, , 
5718,15718,Masonic Ave & Turk St  , ,37.778771,-122.447, , 
5719,15719,Masonic Ave & Turk St  , ,37.77876,-122.44716, , 
5732,15732,Noe St & 27th St  , ,37.74668,-122.43148, , 
5733,15733,Noe St & 27th St  , ,37.74654,-122.43132, , 
5734,15734,Noe St & 28th St  , ,37.74519,-122.43134, , 
5735,15735,Noe St & 28th St  , ,37.74493,-122.43117, , 
5736,15736,Noe St & 29th St  , ,37.743311,-122.431179, , 
5737,15737,Noe St & 29th St  , ,37.7433,-122.43104, , 
5738,15738,Noe St & 30th St  , ,37.74201,-122.43101, , 
5741,15741,Noriega St & 24th Ave  , ,37.754042,-122.482773, , 
5742,15742,Noriega St & 25th Ave  , ,37.753881,-122.483014, , 
5744,15744,Noriega St & 27th Ave  , ,37.753782,-122.485168, , 
5745,15745,Noriega St & 28th Ave  , ,37.753898,-122.485993, , 
5746,15746,Noriega St & 29th Ave  , ,37.753692,-122.48731, , 
5747,15747,Noriega St & 30th Ave  , ,37.753754,-122.489201, , 
5748,15748,Noriega St & 31st Ave  , ,37.753593,-122.489453, , 
5751,15751,Noriega St & 34th Ave  , ,37.753619,-122.492432, , 
5752,15752,Noriega St & 34th Ave  , ,37.753458,-122.49265, , 
5753,15753,Noriega St & 38th Ave  , ,37.75343,-122.496717, , 
5754,15754,Noriega St & 39th Ave  , ,37.753215,-122.498012, , 
5755,15755,Noriega St & 40th Ave  , ,37.753331,-122.498848, , 
5756,15756,Noriega St & 41st Ave  , ,37.753125,-122.500166, , 
5757,15757,Noriega St & 42nd Ave  , ,37.753241,-122.501002, , 
5758,15758,Noriega St & 43rd Ave  , ,37.753026,-122.502309, , 
5759,15759,Noriega St & 44th Ave  , ,37.75316,-122.503088, , 
5761,15761,Noriega St & 46th Ave  , ,37.753034,-122.505712, , 
5762,15762,Noriega St & 46th Ave  , ,37.752891,-122.505574, , 
5763,15763,Noriega St & 48th Ave  , ,37.752934,-122.507854, , 
5764,15764,Noriega St & Sunset Blvd  , ,37.753493,-122.495056, , 
5765,15765,Noriega St & Sunset Blvd  , ,37.753395,-122.495274, , 
5766,15766,Northridge Rd & Dormitory Rd   , ,37.73025,-122.37448, , 
5767,15767,Northridge Rd & Harbor Rd  , ,37.730978,-122.377013, , 
5768,15768,Northridge Rd & Ingalls St   , ,37.73163,-122.37896, , 
5779,15779,Ocean Ave & Aptos Ave   , ,37.728285,-122.467561, , 
5780,15780,Ocean Ave & Aptos Ave   , ,37.728383,-122.467871, , 
5781,15781,Ocean Ave/Balboa Park Bart Station   , ,37.722951,-122.446749, , 
5782,15782,Ocean Ave & Cayuga Ave  , ,37.72367,-122.43867, , 
5783,15783,Ocean Ave & Cayuga Ave  , ,37.72357,-122.43853, , 
5786,15786,Ocean Ave & Cerritos Ave   , ,37.727252,-122.46676, , 
5787,15787,Ocean Ave & Dorado Ter  , ,37.724957,-122.461059, , 
5788,15788,Ocean Ave & Fairfield Way  , ,37.726008,-122.464072, , 
5790,15790,Ocean Ave & Howth St  , ,37.723022,-122.449784, , 
5791,15791,Ocean Ave & Howth St  , ,37.72286,-122.44929, , 
5792,15792,Ocean Ave & Junipero Serra Blvd, ,37.730952,-122.471686, , 
5793,15793,Ocean Ave & Jules Ave  , ,37.724955,-122.46139, , 
5794,15794,Ocean Ave & Lee St  , ,37.723459,-122.453999, , 
5795,15795,Ocean Ave & Lee St  , ,37.723397,-122.454423, , 
5796,15796,Ocean Ave & Mission St  , ,37.723887,-122.436143, , 
5797,15797,Ocean Ave & Miramar Ave  , ,37.724387,-122.458077, , 
5798,15798,Ocean Ave & Miramar Ave  , ,37.724262,-122.458306, , 
5800,15800,Ocean Ave & Otsego Ave  , ,37.72326,-122.44124, , 
5801,15801,Ocean Ave & Persia Ave  , ,37.72382,-122.43589, , 
5804,15804,Ocean Ave & San Jose Ave, ,37.723004,-122.444951, , 
5805,15805,Ocean Ave & San Jose St  , ,37.7229,-122.4444, , 
5806,15806,Ocean Ave & San Leandro Way   , ,37.729989,-122.469097, , 
5807,15807,Ocean Ave & San Leandro Way   , ,37.729945,-122.469475, , 
5808,15808,Ocean Ave & Victoria St  , ,37.726029,-122.464337, , 
5809,15809,Ocean Ave & Westgate Dr , ,37.727199,-122.46648, , 
5810,15810,O'Farrell St & Grant Ave   , ,37.786642,-122.405629, , 
5813,15813,O'Farrell St & Larkin St  , ,37.785138,-122.4177, , 
5814,15814,O'Farrell St & Leavenworth St , ,37.785538,-122.414445, , 
5817,15817,O'Farrell St & Powell St  , ,37.786331,-122.408128, , 
5818,15818,O'Farrell St & Van Ness Ave  , ,37.784657,-122.421415, , 
5825,15825,Orizaba Ave & Broad St  , ,37.713328,-122.462585, , 
5828,15828,Ortega St & 48th Ave  , ,37.750981,-122.507497, , 
5829,15829,100 O'Shaughnessy Blvd  , ,37.744481,-122.450678, , 
5830,15830,O'Shaughnessy Blvd & Del Vale Ave, ,37.741385,-122.446027, , 
5831,15831,O'Shaughnessy Blvd & Del Vale Ave, ,37.741082,-122.44597, , 
5832,15832,O'Shaughnessy Blvd & Malta Dr , ,37.736611,-122.443301, , 
5833,15833,O'Shaughnessy Blvd & Malta Dr , ,37.736478,-122.443782, , 
5834,15834,O'Shaughnessy Blvd & Portola Dr, ,37.744999,-122.451308, , 
5835,15835,150 Otis St  , ,37.77073,-122.42031, , 
5836,15836,Otis St & 12th St   , ,37.77281,-122.41917, , 
5837,15837,Pacific Ave & Grant Ave  , ,37.796984,-122.406735, , 
5838,15838,Pacific Ave & Hyde St  , ,37.79555,-122.4182, , 
5839,15839,Pacific Ave & Hyde St  , ,37.795381,-122.418395, , 
5840,15840,Pacific Ave & Jones St  , ,37.79596,-122.41491, , 
5841,15841,Pacific Ave & Jones St  , ,37.795791,-122.415105, , 
5842,15842,Pacific Ave & Kearny St  , ,37.79717,-122.405222, , 
5843,15843,Pacific Ave & Larkin St  , ,37.795328,-122.419863, , 
5844,15844,Pacific Ave & Larkin St  , ,37.795149,-122.420035, , 
5845,15845,Pacific Ave & Leavenworth St  , ,37.795755,-122.416549, , 
5846,15846,Pacific Ave & Leavenworth St  , ,37.795586,-122.416744, , 
5847,15847,Pacific Ave & Mason St  , ,37.796378,-122.411619, , 
5848,15848,Pacific Ave & Mason St  , ,37.796209,-122.411814, , 
5849,15849,Pacific Ave & Montgomery St  , ,37.797393,-122.403582, , 
5850,15850,Pacific Ave & Polk St  , ,37.795114,-122.42148, , 
5851,15851,Pacific Ave & Polk St  , ,37.794998,-122.42125, , 
5852,15852,Pacific Ave & Powell St  , ,37.796556,-122.409991, , 
5853,15853,Pacific Ave & Powell St  , ,37.796405,-122.410175, , 
5854,15854,Pacific Ave & Sansome St  , ,37.797544,-122.402367, , 
5856,15856,Pacific Ave & Taylor St  , ,37.796165,-122.41327, , 
5857,15857,Pacific Ave & Taylor St  , ,37.795995,-122.413465, , 
5859,15859,Pacific Ave & Van Ness Ave  , ,37.794784,-122.422901, , 
5863,15863,Palou Ave & 3rd St  , ,37.734019,-122.390825, , 
5864,15864,Palou Ave & 3rd St   , ,37.73385,-122.390859, , 
5867,15867,Palou Ave & Industrial St   , ,37.739529,-122.400547, , 
5873,15873,Palou Ave & Keith St   , ,37.732055,-122.387367, , 
5874,15874,Palou Ave & Keith St   , ,37.731849,-122.38731, , 
5875,15875,Palou Ave & Lane St   , ,37.732921,-122.38889, , 
5876,15876,Palou Ave & Lane St   , ,37.732912,-122.389176, , 
5877,15877,Palou Ave & Newhall St   , ,37.735029,-122.39292, , 
5878,15878,Palou Ave & Newhall St   , ,37.735028,-122.392657, , 
5879,15879,Palou Ave & Phelps St   , ,37.7361,-122.394535, , 
5880,15880,Palou Ave & Phelps St   , ,37.7361,-122.39481, , 
5881,15881,Palou Ave & Quint St   , ,37.737163,-122.396367, , 
5882,15882,Palou Ave & Quint St   , ,37.737216,-122.396722, , 
5883,15883,Palou Ave & Rankin St   , ,37.73821,-122.39824, , 
5884,15884,Palou Ave & Rankin St   , ,37.73825,-122.39853, , 
5885,15885,Parnassus Ave & 4th Ave  , ,37.762727,-122.46074, , 
5887,15887,500 Parnassus Ave  , ,37.763308,-122.458746, , 
5889,15889,Parnassus Ave & Cole St  , ,37.764905,-122.450083, , 
5890,15890,Parnassus Ave & Cole St  , ,37.764789,-122.449854, , 
5891,15891,Parnassus Ave & Hillway Ave  , ,37.763807,-122.45697, , 
5892,15892,Parnassus Ave & Hillway Ave  , ,37.763718,-122.456741, , 
5893,15893,Parnassus Ave & Shrader St  , ,37.764771,-122.451103, , 
5894,15894,Parnassus Ave & Shrader St  , ,37.764602,-122.451298, , 
5895,15895,Parnassus Ave & Stanyan St  , ,37.764548,-122.452879, , 
5896,15896,Parnassus Ave & Stanyan St  , ,37.764432,-122.45265, , 
5897,15897,Parnassus Ave & Willard St  , ,37.764352,-122.454529, , 
5898,15898,Parnassus Ave & Willard St  , ,37.764236,-122.4543, , 
5899,15899,Paul Ave & Bay Shore Blvd  , ,37.723647,-122.400591, , 
5900,15900,Paul Ave & Carr St  , ,37.722485,-122.396343, , 
5901,15901,Paul Ave & Crane St  , ,37.723289,-122.39908, , 
5902,15902,Paul Ave & Gould St  , ,37.723012,-122.397946, , 
5903,15903,Paul Ave & Gould St  , ,37.722726,-122.397385, , 
5904,15904,Paul Ave & San Bruno Ave   , ,37.723879,-122.401576, , 
5905,15905,Paul Ave & Wheat St  , ,37.723397,-122.400202, , 
5906,15906,Persia Ave & Athens St   , ,37.720139,-122.429501, , 
5907,15907,Persia Ave & Athens St   , ,37.720112,-122.429467, , 
5908,15908,Persia Ave & Brazil Ave   , ,37.717782,-122.422504, , 
5909,15909,Persia Ave & Brazil Ave   , ,37.717791,-122.422779, , 
5910,15910,Persia Ave & Madrid St   , ,37.721638,-122.432673, , 
5911,15911,Persia Ave & Madrid St   , ,37.721612,-122.432959, , 
5912,15912,Persia Ave & Mission St   , ,37.723147,-122.435845, , 
5913,15913,Persia Ave & Mission St   , ,37.722941,-122.435765, , 
5914,15914,Persia Ave & Moscow St   , ,37.719728,-122.428676, , 
5915,15915,Persia Ave & Moscow St   , ,37.719702,-122.428963, , 
5916,15916,Persia Ave & Naples St   , ,37.72088,-122.43107, , 
5917,15917,Persia Ave & Naples St   , ,37.720853,-122.431356, , 
5918,15918,Persia Ave & Paris St   , ,37.722406,-122.434276, , 
5919,15919,Persia Ave & Paris St   , ,37.722379,-122.434563, , 
5920,15920,Persia Ave & Prague St   , ,37.718961,-122.427062, , 
5921,15921,Persia Ave & Prague St   , ,37.718934,-122.427348, , 
5922,15922,City College Bookstore, ,37.7241,-122.45226, , 
5923,15923,City College Bookstore, ,37.72385,-122.45243, , 
5924,15924,Frida Khalo Way & Judson Ave, ,37.72762,-122.45229, , 
5925,15925,Frida Khalo Way & Judson Ave, ,37.727867,-122.452453, , 
5926,15926,City College Terminal, ,37.723629,-122.45267, , 
5928,15928,City College Ocean Campus, ,37.726038,-122.45227, , 
5929,15929,City College Ocean Campus, ,37.725539,-122.45243, , 
5930,15930,Phelps St & Carroll Ave   , ,37.7291,-122.40088, , 
5931,15931,Phelps St & Carroll Ave   , ,37.72912,-122.40101, , 
5932,15932,Phelps St & Donner Ave   , ,37.72847,-122.40144, , 
5933,15933,Phelps St & Egbert Ave   , ,37.72808,-122.40193, , 
5940,15940,Phelps St & Williams Ave   , ,37.73019,-122.39988, , 
5946,15946,Park Presidio Blvd & Balboa St, ,37.776948,-122.471975, , 
5947,15947,Park Presidio Blvd & Balboa St, ,37.77648,-122.47214, , 
5948,15948,Park Presidio & California Street, ,37.784336,-122.472642, , 
5949,15949,PARK PRESIDIO BLVD & California ST, ,37.784497,-122.472528, , 
5950,15950,Park Presidio Blvd & Fulton St, ,37.773219,-122.471653, , 
5951,15951,Park Presidio Blvd & Fulton St, ,37.77327,-122.47191, , 
5952,15952,Park Presidio Blvd & Geary Blvd, ,37.780571,-122.472412, , 
5953,15953,Park Presidio Blvd & Geary Blvd, ,37.780776,-122.472217, , 
5955,15955,Gilman Ave and Giants Dr, ,37.717502,-122.38699, , 
5960,15960,Plymouth Ave & Grafton Ave  , ,37.720113,-122.456221, , 
5961,15961,Plymouth Ave & Holloway Ave  , ,37.721934,-122.456232, , 
5962,15962,Plymouth Ave & Holloway Ave  , ,37.721764,-122.456038, , 
5967,15967,Plymouth Ave & Mangels Ave  , ,37.73209,-122.45765, , 
5968,15968,Plymouth Ave & Mangels Ave  , ,37.732239,-122.457768, , 
5973,15973,Plymouth Ave & Monterey Blvd  , ,37.73111,-122.45753, , 
5974,15974,Plymouth Ave & Ocean Ave  , ,37.723772,-122.456049, , 
5975,15975,Plymouth Ave & Ocean Ave  , ,37.723638,-122.456233, , 
5980,15980,Plymouth Ave & Yerba Buena Ave, ,37.73261,-122.45851, , 
5983,15983,Polk St & Broadway  , ,37.796185,-122.421731, , 
5984,15984,Polk St & Broadway  , ,37.795676,-122.421812, , 
5987,15987,Polk St & Francisco St  , ,37.803653,-122.423231, , 
5988,15988,Polk St & Francisco St  , ,37.803475,-122.42338, , 
5990,15990,Polk St & Lombard St  , ,37.801628,-122.423014, , 
5991,15991,Polk St & Lombard St  , ,37.801476,-122.422796, , 
5992,15992,Polk St & North Point St  , ,37.805018,-122.4237, , 
5993,15993,Polk St & O'Farrell St  , ,37.785022,-122.419661, , 
5995,15995,Polk St & Pine St  , ,37.789769,-122.420427, , 
5996,15996,Polk St & Pine St  , ,37.789359,-122.42053, , 
5997,15997,Polk St & Post St  , ,37.786914,-122.419889, , 
5999,15999,Polk St & Sacramento St  , ,37.791741,-122.420827, , 
6000,16000,Polk St & Sacramento St   , ,37.791929,-122.421057, , 
6002,16002,Polk St & Sutter St  , ,37.787663,-122.42021, , 
6003,16003,Polk St & Union St  , ,37.799004,-122.422292, , 
6004,16004,Polk St & Union St  , ,37.798826,-122.422441, , 
6006,16006,Polk St & Washington St  , ,37.793499,-122.421193, , 
6007,16007,Polk St & Washington St   , ,37.793695,-122.421411, , 
6008,16008,6 Portola Dr  , ,37.749951,-122.443483, , 
6009,16009,120 Portola Dr  , ,37.74897,-122.44396, , 
6010,16010,Portola Dr & Burnett Ave   , ,37.747033,-122.44487, , 
6012,16012,Portola Dr & Clipper St, ,37.74715,-122.4442, , 
6013,16013,Portola Dr & Del Sur Ave   , ,37.741974,-122.455776, , 
6015,16015,Portola Dr & Glenview Dr  , ,37.746462,-122.447917, , 
6026,16026,Potrero Ave & 16th St   , ,37.766031,-122.407474, , 
6027,16027,Potrero Ave & 16th St  , ,37.765701,-122.407646, , 
6034,16034,Potrero Ave & 21st St  , ,37.75749,-122.4069, , 
6037,16037,Potrero Ave & 23rd St  , ,37.754949,-122.406747, , 
6038,16038,Potrero Ave & 24th St  , ,37.753111,-122.406336, , 
6039,16039,Potrero Ave & 24th St  , ,37.752942,-122.406393, , 
6040,16040,Potrero Ave & 25th St  , ,37.75164,-122.40608, , 
6043,16043,Potrero Ave & Alameda St  , ,37.768271,-122.407932, , 
6045,16045,Powell St & Bay St  , ,37.805738,-122.411833, , 
6054,16054,Powell St & Filbert St  , ,37.801232,-122.411124, , 
6055,16055,Powell St & Francisco St  , ,37.804962,-122.411879, , 
6056,16056,Powell St & Francisco St  , ,37.80481,-122.41165, , 
6060,16060,Powell St & Lombard St  , ,37.802945,-122.411272, , 
6061,16061,Powell St & Lombard St  , ,37.802767,-122.411433, , 
6066,16066,Powell St & North Point St  , ,37.806497,-122.412176, , 
6080,16080,Prague St & Cordova Ave  , ,37.710164,-122.435069, , 
6081,16081,Prague St & Drake St  , ,37.709968,-122.436798, , 
6083,16083,Prague St & Persia Ave   , ,37.71884,-122.42722, , 
6084,16084,Prague St & Russia Ave   , ,37.71756,-122.4282, , 
6085,16085,Prague St & Russia Ave   , ,37.71748,-122.42835, , 
6109,16109,Point Lobos Ave & 42nd Ave  , ,37.779651,-122.502855, , 
6111,16111,Point Lobos Ave & 44th Ave  , ,37.779837,-122.50501, , 
6112,16112,Portola Dr & Glenview Dr  , ,37.74636,-122.44764, , 
6115,16115,Portola Dr at McAteer HS, ,37.74593,-122.44957, , 
6118,16118,Portola Dr & Rex Ave   , ,37.740885,-122.457517, , 
6119,16119,Potrero Ave At SF General Hospital, ,37.755413,-122.406472, , 
6122,16122,Portola Dr & Waithman Way   , ,37.741626,-122.456521, , 
6129,16129,Point Lobos Ave & 46th Ave  , ,37.780041,-122.50744, , 
6172,16172,Randolph St & Arch St  , ,37.714342,-122.466982, , 
6173,16173,Randolph St & Arch St  , ,37.714201,-122.467218, , 
6174,16174,Randolph St & Bright St  , ,37.714348,-122.463392, , 
6175,16175,Randolph St & Bright St  , ,37.71425,-122.463675, , 
6181,16181,Richardson Ave & Francisco St , ,37.800408,-122.447447, , 
6182,16182,Richardson Ave & Francisco St , ,37.800328,-122.446954, , 
6184,16184,Reddy St & Thornton Ave  , ,37.73098,-122.39504, , 
6185,16185,Reddy St & Williams Ave  , ,37.72979,-122.3954, , 
6186,16186,176 Rhode Island St   , ,37.75617,-122.401842, , 
6187,16187,Rhode Island St & 15th St  , ,37.767466,-122.402912, , 
6188,16188,Rhode Island St & 15th St  , ,37.767315,-122.402729, , 
6189,16189,Rhode Island St & 16th St  , ,37.766324,-122.402627, , 
6190,16190,Rhode Island St & 16th St  , ,37.766164,-122.402799, , 
6191,16191,Rhode Island St & 17th St  , ,37.76487,-122.402673, , 
6192,16192,Rhode Island St & 18th St  , ,37.761988,-122.4024, , 
6193,16193,Rhode Island St & 19th St  , ,37.760953,-122.402298, , 
6195,16195,Rhode Island St & 20th St  , ,37.759436,-122.402161, , 
6196,16196,Rhode Island St & 22nd St  , ,37.756884,-122.401911, , 
6197,16197,Rhode Island St & 23rd St  , ,37.754332,-122.401672, , 
6198,16198,Rhode Island St & 24th St  , ,37.753386,-122.401569, , 
6199,16199,Rhode Island St & 25th St  , ,37.75211,-122.401467, , 
6200,16200,Rhode Island St & 26th St  , ,37.750727,-122.401342, , 
6201,16201,Rhode Island St & Alameda St  , ,37.768742,-122.403038, , 
6202,16202,Rhode Island St & Alameda St  , ,37.768573,-122.402843, , 
6203,16203,Rhode Island St & Mariposa St , ,37.763264,-122.402525, , 
6204,16204,Rhode Island St & Southern Heights Ave, ,37.758499,-122.40207, , 
6212,16212,Rousseau St & Cayuga Ave   , ,37.731399,-122.429647, , 
6241,16241,Russia Ave & Moscow St   , ,37.71814,-122.42985, , 
6248,16248,Revere Ave & 3rd St   , ,37.73241,-122.39135, , 
6249,16249,Revere Ave & 3rd St   , ,37.7322,-122.39123, , 
6250,16250,Revere Ave & Ingalls St   , ,37.7285,-122.38469, , 
6251,16251,Revere Ave & Jennings St   , ,37.72953,-122.3863, , 
6252,16252,Revere Ave & Jennings St   , ,37.72956,-122.38656, , 
6253,16253,Revere Ave & Lane St   , ,37.73165,-122.39004, , 
6254,16254,Revere Ave & Lane St   , ,37.73169,-122.39029, , 
6257,16257,San Jose Ave & Farallones St   , ,37.714153,-122.452148, , 
6259,16259,San Jose Ave & Farallones St   , ,37.713957,-122.452281, , 
6263,16263,San Jose Ave & Geneva Ave   , ,37.720649,-122.446738, , 
6265,16265,San Jose Ave & Lakeview Ave   , ,37.71633,-122.450368, , 
6266,16266,San Jose Ave & Lakeview Ave   , ,37.716083,-122.450435, , 
6268,16268,San Jose Ave & Mt Vernon Ave   , ,37.718284,-122.448593, , 
6290,16290,Sacramento St & Battery St  , ,37.79418,-122.400282, , 
6291,16291,Sacramento St & Buchanan St  , ,37.790316,-122.430617, , 
6292,16292,Sacramento St & Buchanan St  , ,37.790194,-122.430855, , 
6294,16294,Sacramento St & Davis St  , ,37.7945,-122.39761, , 
6295,16295,Sacramento St & Fillmore St  , ,37.789861,-122.434114, , 
6296,16296,Sacramento St & Fillmore St  , ,37.789816,-122.433988, , 
6297,16297,Sacramento St & Franklin St  , ,37.79115,-122.424037, , 
6298,16298,Sacramento St & Gough St  , ,37.790887,-122.426132, , 
6299,16299,Sacramento St & Grant Ave  , ,37.793411,-122.406306, , 
6300,16300,Sacramento St & Hyde St  , ,37.79197,-122.417445, , 
6301,16301,Sacramento St & Jones St  , ,37.792396,-122.414161, , 
6302,16302,Sacramento St & Kearny St  , ,37.793575,-122.404846, , 
6303,16303,Sacramento St & Larkin St  , ,37.791721,-122.419531, , 
6304,16304,Sacramento St & Leavenworth St, ,37.792183,-122.415755, , 
6305,16305,Sacramento St & Laguna St  , ,37.790526,-122.42896, , 
6306,16306,Sacramento St & Laguna St  , ,37.79036,-122.429185, , 
6307,16307,Sacramento St & Montgomery St , ,37.793842,-122.403068, , 
6309,16309,Sacramento St & Octavia St   , ,37.790743,-122.427328, , 
6310,16310,Sacramento St & Octavia St  , ,37.790565,-122.427614, , 
6311,16311,Sacramento St & Polk St  , ,37.791516,-122.421146, , 
6312,16312,Sacramento St & Powell St  , ,37.793043,-122.409116, , 
6314,16314,Sacramento St & Sansome St  , ,37.79403,-122.401551, , 
6315,16315,Sacramento St & Sproule Ln  , ,37.792673,-122.411864, , 
6316,16316,Sacramento St & Stockton St  , ,37.793236,-122.407591, , 
6317,16317,Sacramento St & Van Ness Ave  , ,37.791378,-122.422286, , 
6319,16319,Sacramento St & Webster St  , ,37.790107,-122.432226, , 
6320,16320,Sacramento St & Webster St  , ,37.789987,-122.4325, , 
6337,16337,Sansome St & Washington St  , ,37.79606,-122.40166, , 
6339,16339,Santos St & Brookdale Ave   , ,37.711696,-122.418864, , 
6340,16340,Santos St & Brookdale Ave  , ,37.711857,-122.418681, , 
6343,16343,Santos St & Geneva Ave   , ,37.70864,-122.41987, , 
6344,16344,Santos St & Geneva Ave   , ,37.7085,-122.42008, , 
6345,16345,Santos St & Velasco Ave   , ,37.709867,-122.4193, , 
6346,16346,Santos St & Velasco Ave   , ,37.710028,-122.419426, , 
6348,16348,3800 San Bruno Ave   , ,37.71479,-122.40057, , 
6350,16350,3801 San Bruno Ave  , ,37.71467,-122.40046, , 
6352,16352,San Bruno Ave & Arleta Ave  , ,37.712235,-122.402454, , 
6355,16355,San Bruno Ave & Bacon St  , ,37.72797,-122.40367, , 
6357,16357,San Bruno Ave & Bacon St   , ,37.72752,-122.403647, , 
6358,16358,San Bruno Ave & Dwight St  , ,37.72408,-122.4022, , 
6360,16360,San Bruno Ave & Mansell St   , ,37.721478,-122.400948, , 
6361,16361,San Bruno Ave & Mansell St  , ,37.721604,-122.401223, , 
6362,16362,San Bruno Ave & Paul Ave   , ,37.72418,-122.4021, , 
6363,16363,San Bruno Ave & Paul Ave  , ,37.723647,-122.401863, , 
6364,16364,San Bruno Ave & Silver Ave   , ,37.732384,-122.405523, , 
6365,16365,San Bruno Ave & Silver Ave   , ,37.73217,-122.40556, , 
6366,16366,San Bruno Ave & Somerset St  , ,37.71384,-122.40213, , 
6367,16367,San Bruno Ave & Thornton Ave   , ,37.73026,-122.40462, , 
6369,16369,San Bruno Ave & Ward St   , ,37.71905,-122.40049, , 
6371,16371,San Bruno Ave & Wilde Ave  , ,37.71672,-122.39993, , 
6372,16372,San Bruno Ave & Woolsey St  , ,37.72531,-122.40271, , 
6373,16373,San Bruno Ave & Wayland St   , ,37.72637,-122.40301, , 
6382,16382,Schwerin St & Garrison Ave   , ,37.70931,-122.412, , 
6383,16383,Schwerin St & Garrison Ave  , ,37.70906,-122.41198, , 
6384,16384,Schwerin St & Geneva Ave   , ,37.706528,-122.413359, , 
6385,16385,Schwerin St & Macdonald Ave   , ,37.70709,-122.41293, , 
6386,16386,Schwerin St & Sunnydale Ave   , ,37.71049,-122.41136, , 
6387,16387,Schwerin St & Sunnydale Ave   , ,37.71036,-122.41151, , 
6388,16388,Schwerin St & Velasco Ave   , ,37.70826,-122.41234, , 
6389,16389,Schwerin St & Velasco Ave   , ,37.70813,-122.41254, , 
6393,16393,Silver Ave & Alemany Blvd   , ,37.729794,-122.433256, , 
6394,16394,Silver Ave & Alemany Blvd   , ,37.729589,-122.433175, , 
6395,16395,Silver Ave & Augusta St   , ,37.734586,-122.402188, , 
6396,16396,Silver Ave & Boylston St   , ,37.730913,-122.410839, , 
6397,16397,Silver Ave & Bay Shore Blvd   , ,37.733052,-122.404365, , 
6398,16398,Silver Ave & Cambridge St  , ,37.729131,-122.419396, , 
6399,16399,Silver Ave & Cambridge St  , ,37.729015,-122.419167, , 
6400,16400,Silver Ave & Charter Oak Ave   , ,37.733275,-122.404297, , 
6401,16401,Silver Ave & Congdon St  , ,37.728713,-122.425868, , 
6402,16402,Silver Ave & Congdon St  , ,37.728561,-122.426085, , 
6404,16404,Silver Ave & Dartmouth St   , ,37.729932,-122.412981, , 
6405,16405,Silver Ave & Dartmouth St   , ,37.729843,-122.413611, , 
6406,16406,Silver Ave & Gambier St  , ,37.7289,-122.422569, , 
6407,16407,Silver Ave & Gambier St  , ,37.728748,-122.422786, , 
6408,16408,Silver Ave & Holyoke St   , ,37.730967,-122.410197, , 
6410,16410,Silver Ave & Lisbon St  , ,37.728473,-122.428789, , 
6411,16411,Silver Ave & Merrill St   , ,37.7315,-122.40885, , 
6412,16412,Silver Ave & Merrill St   , ,37.731332,-122.408994, , 
6414,16414,Silver Ave & Mission St   , ,37.728776,-122.431114, , 
6415,16415,Silver Ave & Mission St  , ,37.72866,-122.431217, , 
6416,16416,Silver Ave & Palou Ave   , ,37.7371,-122.39663, , 
6417,16417,Silver Ave & Princeton St   , ,37.729014,-122.416109, , 
6418,16418,Silver Ave & Princeton St   , ,37.728827,-122.416269, , 
6419,16419,Silver Ave & Revere Ave   , ,37.736316,-122.398624, , 
6420,16420,Silver Ave & Revere Ave   , ,37.736361,-122.398888, , 
6421,16421,Silver Ave & San Bruno Ave   , ,37.73241,-122.405672, , 
6422,16422,Silver Ave & San Bruno Ave   , ,37.732446,-122.405683, , 
6424,16424,Silver Ave & Topeka Ave   , ,37.735273,-122.401065, , 
6425,16425,Starr King Way & Gough St  , ,37.78505,-122.424085, , 
6469,16469,South Hill Blvd & Chicago Way  , ,37.710708,-122.431507, , 
6470,16470,South Hill Blvd & Prague St   , ,37.712153,-122.432183, , 
6471,16471,South Hill Blvd & Rolph St   , ,37.711234,-122.431771, , 
6472,16472,South Hill Blvd & Rolph St   , ,37.711698,-122.432103, , 
6473,16473,South Van Ness Ave & Mission St, ,37.773316,-122.418622, , 
6475,16475,Spear St & Market St   , ,37.793598,-122.395479, , 
6486,16486,Steiner St & California St  , ,37.788844,-122.435568, , 
6487,16487,Steiner St & Green St  , ,37.795859,-122.436863, , 
6488,16488,Steiner St & Green St   , ,37.795937,-122.437037, , 
6489,16489,Steiner St & Sacramento St  , ,37.789329,-122.435556, , 
6490,16490,Steiner St & Union St  , ,37.796785,-122.437054, , 
6491,16491,Steiner St & Union St  , ,37.796627,-122.437137, , 
6492,16492,Steiner St & Vallejo St  , ,37.794911,-122.436669, , 
6493,16493,Steiner St & Vallejo St   , ,37.794887,-122.436789, , 
6498,16498,Steuart St & Mission St  , ,37.793249,-122.393278, , 
6501,16501,Steuart St & Market St   , ,37.794409,-122.394538, , 
6503,16503,West Portal/Sloat/St Francis Circle, ,37.734807,-122.471618, , 
6509,16509,Still St & Lyell St  , ,37.731837,-122.431319, , 
6511,16511,Stockton St & Clay St   , ,37.793736,-122.407757, , 
6512,16512,Stockton St & Columbus Ave  , ,37.799215,-122.408878, , 
6513,16513,Stockton St & Columbus Ave  , ,37.799277,-122.40905, , 
6516,16516,Stockton St & Geary St, ,37.787802,-122.406752, , 
6520,16520,Stockton St & Pacific Ave   , ,37.796244,-122.40826, , 
6521,16521,Stockton St & Pacific Ave   , ,37.797189,-122.408604, , 
6522,16522,Stockton St & Sacramento St   , ,37.793433,-122.407861, , 
6523,16523,Stockton St & Sutter St  , ,37.789471,-122.406946, , 
6524,16524,Stockton St & Sutter St  , ,37.789489,-122.40706, , 
6526,16526,Stockton St & Washington St   , ,37.795119,-122.408238, , 
6527,16527,Sunset Blvd & Irving St  , ,37.762621,-122.495784, , 
6528,16528,Sunset Blvd & Irving St  , ,37.762496,-122.495955, , 
6529,16529,Sunset Blvd & Judah St  , ,37.761006,-122.495851, , 
6530,16530,Sunset Blvd & Judah St  , ,37.760765,-122.495656, , 
6531,16531,Sunset Blvd & Kirkham St  , ,37.759132,-122.495713, , 
6532,16532,Sunset Blvd & Kirkham St  , ,37.758891,-122.495518, , 
6533,16533,Sunset Blvd & Lake Merced Blvd, ,37.73034,-122.493518, , 
6534,16534,Sunset Blvd & Lake Merced Blvd, ,37.729804,-122.493655, , 
6535,16535,Sunset Blvd & Lawton St  , ,37.757267,-122.495585, , 
6536,16536,Sunset Blvd & Lawton St  , ,37.757026,-122.49539, , 
6537,16537,Sunset Blvd & Moraga St  , ,37.755402,-122.495458, , 
6538,16538,Sunset Blvd & Moraga St  , ,37.755162,-122.495263, , 
6539,16539,Sunset Blvd & Noriega St  , ,37.753538,-122.495319, , 
6540,16540,Sunset Blvd & Noriega St  , ,37.753297,-122.495124, , 
6541,16541,Sunset Blvd & Ocean Ave  , ,37.732026,-122.493862, , 
6542,16542,Sunset Blvd & Ocean Ave  , ,37.73183,-122.493622, , 
6543,16543,Sunset Blvd & Ortega St  , ,37.751798,-122.49502, , 
6544,16544,Sunset Blvd & Ortega St  , ,37.751307,-122.495169, , 
6545,16545,Sunset Blvd & Pacheco St  , ,37.749808,-122.495065, , 
6546,16546,Sunset Blvd & Pacheco St  , ,37.749567,-122.49487, , 
6547,16547,Sunset Blvd & Quintara St  , ,37.748068,-122.494766, , 
6548,16548,Sunset Blvd & Quintara St  , ,37.747578,-122.494915, , 
6549,16549,Sunset Blvd & Rivera St  , ,37.746079,-122.494799, , 
6550,16550,Sunset Blvd & Rivera St  , ,37.745838,-122.494604, , 
6553,16553,Sunset Blvd & Santiago St  , ,37.744223,-122.494672, , 
6554,16554,Sunset Blvd & Santiago St  , ,37.743982,-122.494477, , 
6555,16555,Sunset Blvd & Taraval St  , ,37.742349,-122.494545, , 
6556,16556,Sunset Blvd & Taraval St  , ,37.742108,-122.49435, , 
6557,16557,Sunset Blvd & Ulloa St  , ,37.740243,-122.494211, , 
6558,16558,Sunset Blvd & Ulloa St  , ,37.740118,-122.494383, , 
6559,16559,Sunset Blvd & Vicente St  , ,37.738619,-122.494279, , 
6560,16560,Sunset Blvd & Vicente St  , ,37.738379,-122.494084, , 
6561,16561,Sunset Blvd & Wawona St  , ,37.736764,-122.494152, , 
6562,16562,Sunset Blvd & Wawona St  , ,37.736541,-122.493911, , 
6563,16563,Sunset Blvd & Yorba St  , ,37.734854,-122.493784, , 
6564,16564,Sunset Blvd & Yorba St  , ,37.734783,-122.494059, , 
6565,16565,1725 Sunnydale Ave  , ,37.71279,-122.41954, , 
6566,16566,1800 Sunnydale Ave  , ,37.712972,-122.419952, , 
6567,16567,1900 Sunnydale Ave  , ,37.7134,-122.42138, , 
6568,16568,1901 Sunnydale Ave  , ,37.71322,-122.42115, , 
6569,16569,Sunnydale Ave & Bay Shore Blvd , ,37.708944,-122.405204, , 
6570,16570,Sunnydale Ave & Cora St   , ,37.710007,-122.409521, , 
6571,16571,Sunnydale Ave & Cora St  , ,37.710203,-122.409612, , 
6574,16574,Sunnydale Ave / McLaren School, ,37.714133,-122.423673, , 
6575,16575,Sunnydale Ave / McLaren School, ,37.714017,-122.42388, , 
6576,16576,Sunnydale Ave & Rutland St   , ,37.70986,-122.40851, , 
6577,16577,Sunnydale Ave & Santos St  , ,37.712419,-122.418177, , 
6578,16578,Sunnydale Ave & Santos St  , ,37.712231,-122.417536, , 
6583,16583,Sunnydale Ave & Talbert St   , ,37.70935,-122.40669, , 
6584,16584,Sunnydale Ave & Talbert St   , ,37.70935,-122.407, , 
6596,16596,Sutter St & Kearny St  , ,37.789818,-122.404378, , 
6615,16615,Taraval St & 17th Ave  , ,37.743069,-122.47366, , 
6616,16616,Taraval St & 19th Ave  , ,37.74311,-122.475444, , 
6617,16617,Taraval St & 19th Ave  , ,37.742971,-122.475821, , 
6619,16619,Taraval St & 22nd Ave  , ,37.74289,-122.478426, , 
6620,16620,Taraval St & 23rd Ave  , ,37.742872,-122.48045, , 
6622,16622,Taraval St & 26th Ave  , ,37.74278,-122.483068, , 
6623,16623,Taraval St & 26th Ave  , ,37.742653,-122.483324, , 
6626,16626,Taraval St & 30th Ave  , ,37.74259,-122.487338, , 
6627,16627,Taraval St & 30th Ave  , ,37.742461,-122.487615, , 
6628,16628,Taraval St & 32nd Ave  , ,37.74249,-122.489489, , 
6629,16629,Taraval St & 32nd Ave  , ,37.742355,-122.489749, , 
6632,16632,Taraval St & 40th Ave  , ,37.742124,-122.498055, , 
6633,16633,Taraval St & 40th Ave  , ,37.74199,-122.498316, , 
6634,16634,Taraval St & 42nd Ave  , ,37.742021,-122.500202, , 
6635,16635,Taraval St & 42nd Ave  , ,37.7419,-122.500461, , 
6636,16636,Taraval St & 44th Ave  , ,37.741924,-122.502346, , 
6637,16637,Taraval St & 44th Ave  , ,37.741804,-122.502606, , 
6638,16638,Taraval St & 46th Ave  , ,37.741823,-122.50449, , 
6640,16640,Taraval St & Sunset Blvd  , ,37.742287,-122.494361, , 
6641,16641,Taraval St & Sunset Blvd  , ,37.742188,-122.49451, , 
6657,16657,Tennessee St & 18th St  , ,37.7629,-122.389664, , 
6695,16695,Townsend St & 4th St   , ,37.776582,-122.395491, , 
6702,16702,Topeka Ave & Bridge View Dr   , ,37.7333,-122.39762, , 
6703,16703,Topeka Ave & Newhall St  , ,37.7318,-122.39555, , 
6704,16704,Topeka Ave & Thornton Ave   , ,37.73117,-122.39527, , 
6705,16705,Topeka Ave & Venus St   , ,37.73201,-122.39592, , 
6736,16736,Ulloa St & Forest Side Ave  , ,37.741535,-122.46847, , 
6737,16737,Ulloa St & Forest Side Ave  , ,37.741435,-122.4688, , 
6738,16738,Ulloa St & Lenox Way  , ,37.741125,-122.466155, , 
6744,16744,Ulloa St & West Portal Ave   , ,37.74092,-122.466006, , 
6754,16754,Union St & Fillmore St  , ,37.797124,-122.435661, , 
6788,16788,University St & Bacon St  , ,37.72514,-122.41354, , 
6789,16789,University St & Bacon St  , ,37.72499,-122.41339, , 
6792,16792,University St & Felton St  , ,37.72739,-122.41439, , 
6793,16793,University St & Woolsey St  , ,37.72273,-122.41253, , 
6798,16798,Van Ness Ave & Broadway  , ,37.79608,-122.423331, , 
6800,16800,Van Ness Ave & Chestnut St  , ,37.80258,-122.42464, , 
6801,16801,Van Ness Ave & Chestnut St  , ,37.802431,-122.424905, , 
6803,16803,Van Ness Ave & Clay St  , ,37.79245,-122.4226, , 
6804,16804,Van Ness Ave & Eddy St  , ,37.7832,-122.42073, , 
6805,16805,Van Ness Ave & Eddy St  , ,37.7825,-122.42089, , 
6806,16806,Van Ness Ave & Bay St, ,37.804287,-122.424996, , 
6813,16813,Van Ness Ave & Jackson St  , ,37.794177,-122.423005, , 
6814,16814,Van Ness Ave & Jackson St  , ,37.793829,-122.423131, , 
6815,16815,Van Ness Ave & Mcallister St  , ,37.780008,-122.42019, , 
6816,16816,Van Ness Ave & Mcallister St  , ,37.779687,-122.420324, , 
6817,16817,Van Ness Ave & Market St  , ,37.775564,-122.419148, , 
6819,16819,Van Ness Ave & North Point St , ,37.805063,-122.425351, , 
6820,16820,Van Ness Ave & North Point St , ,37.805072,-122.42542, , 
6821,16821,Van Ness Ave & Oak St  , ,37.775475,-122.419412, , 
6823,16823,Van Ness Ave & O'Farrell St  , ,37.784817,-122.421128, , 
6828,16828,Van Ness Ave & Sacramento St  , ,37.791349,-122.422593, , 
6829,16829,Van Ness Ave & Sutter St  , ,37.78783,-122.42166, , 
6830,16830,Van Ness Ave & Sutter St  , ,37.787396,-122.421838, , 
6832,16832,Van Ness Ave & Union St  , ,37.798603,-122.424046, , 
6833,16833,Van Ness Ave & Union St  , ,37.798487,-122.423932, , 
6834,16834,Van Ness Ave & Vallejo St  , ,37.79641,-122.4237, , 
6836,16836,Vicente St & 47th Ave  , ,37.738079,-122.50531, , 
6839,16839,Van Dyke Ave & Jennings St   , ,37.72703,-122.38854, , 
6840,16840,Van Dyke Ave & Jennings St   , ,37.72707,-122.38883, , 
6841,16841,Van Dyke Ave & Keith St   , ,37.72808,-122.39042, , 
6842,16842,Van Dyke Ave & Keith St   , ,37.72789,-122.39027, , 
6843,16843,Van Dyke Ave & Lane St   , ,37.729202,-122.392238, , 
6844,16844,Vesta St & Phelps St  , ,37.73037,-122.39991, , 
6845,16845,Visitacion Ave & Britton St   , ,37.712765,-122.412371, , 
6846,16846,Visitacion Ave & Britton St   , ,37.71273,-122.41263, , 
6847,16847,Visitacion Ave & Bay Shore Blvd, ,37.710567,-122.404493, , 
6848,16848,Visitacion Ave & Cora St   , ,37.7117,-122.40896, , 
6850,16850,Visitacion Ave & Rutland St   , ,37.711488,-122.407791, , 
6851,16851,Visitacion Ave & Rutland St   , ,37.71144,-122.40807, , 
6852,16852,Visitacion Ave & Sawyer St   , ,37.713283,-122.414237, , 
6853,16853,Visitacion Ave & Sawyer St   , ,37.71324,-122.41453, , 
6854,16854,Visitacion Ave & Schwerin St   , ,37.712247,-122.410504, , 
6855,16855,Visitacion Ave & Schwerin St   , ,37.71219,-122.41078, , 
6898,16898,West Portal Ave & 14th Ave   , ,37.737859,-122.469042, , 
6931,16931,Washington St & Webster St  , ,37.791716,-122.432842, , 
6932,16932,Wawona/46th Ave /SF Zoo, ,37.736125,-122.504351, , 
6933,16933,Woodside Ave & Balceta Ave  , ,37.746489,-122.456441, , 
6934,16934,Woodside Ave & Hernandez Ave  , ,37.74638,-122.45535, , 
6935,16935,Woodside Ave & Hernandez Ave, ,37.746283,-122.455593, , 
6937,16937,Woodside Ave & Portola Dr   , ,37.745766,-122.452431, , 
6938,16938,Woodside Ave & Portola Dr   , ,37.745623,-122.452225, , 
6939,16939,Woodside Ave & Ulloa St  , ,37.745766,-122.453829, , 
6940,16940,Woodside Ave & Ulloa St  , ,37.745695,-122.454058, , 
6950,16950,Winston Dr & 20th Ave  , ,37.727017,-122.475922, , 
6951,16951,Winston Dr & 20th Ave  , ,37.726883,-122.475739, , 
6952,16952,Winston Dr & Buckingham Way   , ,37.72806,-122.478488, , 
6953,16953,Winston Dr & Buckingham Way   , ,37.727997,-122.478672, , 
6954,16954,Winston Dr & Lake Merced Blvd , ,37.727122,-122.483299, , 
6955,16955,Winston Dr & Lake Merced Blvd , ,37.726979,-122.48331, , 
6961,16961,Wisconsin St & 25th St  , ,37.752287,-122.398556, , 
6962,16962,Wisconsin St & 26th St  , ,37.751279,-122.398282, , 
6964,16964,Wisconsin St & Connecticut St , ,37.753447,-122.39867, , 
6968,16968,Williams Ave & 3rd St   , ,37.72938,-122.39295, , 
6969,16969,Williams Ave & 3rd St   , ,37.72925,-122.39285, , 
6970,16970,Williams Ave & Reddy St  , ,37.72973,-122.39525, , 
6971,16971,Woolsey St & Bowdoin St  , ,37.72349,-122.40941, , 
6972,16972,Woolsey St & Bowdoin St  , ,37.72338,-122.40961, , 
6978,16978,Woolsey St & Hamilton St  , ,37.72374,-122.40841, , 
6979,16979,Woolsey St & Hamilton St  , ,37.72362,-122.40864, , 
6980,16980,Woolsey St & University St  , ,37.72271,-122.41238, , 
6982,16982,Whitney Young Cir & Progress St, ,37.733337,-122.383322, , 
6983,16983,Whitney Young Cir & Progress St, ,37.733248,-122.383082, , 
6984,16984,Cross Over Dr & Fulton St  , ,37.77235,-122.484077, , 
6985,16985,Yerba Buena Ave & Brentwood Ave, ,37.733604,-122.45896, , 
6986,16986,Yerba Buena Ave & Brentwood Ave, ,37.733702,-122.459189, , 
6987,16987,Yerba Buena Ave & Hazelwood Ave, ,37.734559,-122.459659, , 
6988,16988,Yerba Buena Ave & Hazelwood Ave, ,37.734389,-122.459705, , 
6989,16989,Yerba Buena Ave & Ravenwood Dr , ,37.73531,-122.46055, , 
6990,16990,Yerba Buena Ave & Saint Elmo Way , ,37.732623,-122.458719, , 
6999,16999,7th St & Bryant St   , ,37.774587,-122.405005, , 
7026,17026,Hahn St & Visitacion Ave, ,37.713301,-122.415486, , 
7036,17036,Ocean Ave & Geneva Ave, ,37.723031,-122.452453, , 
7038,17038,Powell St & Beach St, ,37.807639,-122.412141, , 
7058,17058,West Portal Ave & Ulloa St, ,37.740893,-122.465846, , 
7073,17073,Church St & Market St, ,37.767509,-122.428927, , 
7074,17074,Church St & Duboce Ave, ,37.76932,-122.42903, , 
7075,17075,Duboce Ave & Noe St, ,37.76922,-122.43365, , 
7077,17077,Evans Ave & Mendell St, ,37.740905,-122.384564, , 
7099,17099,Mission St & San Jose Ave, ,37.705997,-122.461372, , 
7111,17111,San Jose Ave & Mt Vernon Ave, ,37.71847,-122.44864, , 
7125,17125,West Portal Ave & 14th Ave, ,37.738064,-122.468984, , 
7127,17127,Geneva Ave & Rio Verde St, ,37.707136,-122.415706, , 
7129,17129,Mission St & 7th St, ,37.779354,-122.410505, , 
7160,17160,California St & 8th St, ,37.784792,-122.466819, , 
7171,17171,3rd St & Paul Ave , ,37.722262,-122.395839, , 
7186,17186,Lincoln Way & 19TH AVE, ,37.765437,-122.477209, , 
7187,17187,MIDDLE POINT RD & HARE ST, ,37.734388,-122.379358, , 
7191,17191,SAN BRUNO AVE & SOMERSET ST, ,37.713395,-122.401995, , 
7193,17193,GRAFTON AVE & PLYMOUTH AVE, ,37.720104,-122.457034, , 
7194,17194,GRAFTON AVE & Capitol AVE, ,37.720104,-122.459072, , 
7195,17195,GRAFTON AVE & JULES AVE, ,37.720095,-122.461111, , 
7196,17196,GARFIELD ST & VICTORIA ST, ,37.719764,-122.465234, , 
7205,17205,WEST PORTAL AVE & SLOAT BLVD, ,37.735039,-122.471343, , 
7213,17213,CORTLAND AVE & BRONTE ST, ,37.739711,-122.41017, , 
7227,17227,Market St & Steuart St, ,37.794454,-122.394917, , 
7235,17235,TOWNSEND ST & 4TH ST, ,37.777278,-122.394631, , 
7264,17264,Market St & 1st St , ,37.79094,-122.399195, , 
7281,17281,Embarcadero & Sansome St , ,37.805146,-122.403233, , 
7282,17282,Carl St & Cole St, ,37.765878,-122.450094, , 
7283,17283,The Embarcadero & Ferry Building , ,37.794828,-122.39377, , 
7285,17285,Evans Ave & Quint St , ,37.744039,-122.390473, , 
7286,17286,Evans Ave & Selby St , ,37.746164,-122.39392, , 
7287,17287,Larkin St & McAllister St, ,37.780382,-122.416843, , 
7288,17288,Silver Ave&Santa Fe Ave , ,37.734773,-122.401592, , 
7289,17289,16th St & Folsom St , ,37.7654,-122.415428, , 
7290,17290,Castro St & 26th St , ,37.748201,-122.433893, , 
7297,17297,Sunnydale Ave & Bay Shore Blvd , ,37.708801,-122.40525, , 
7298,17298,Potrero Ave&15th St, ,37.767334,-122.407623, , 
7299,17299,Mission St & South Van Ness Ave, ,37.772994,-122.418485, , 
7300,17300,Geneva Ave&Carter St, ,37.709306,-122.423217, , 
7301,17301,O'Farrell St&Taylor St, ,37.78585,-122.41198, , 
7304,17304,Geneva Ave&Carter St, ,37.709083,-122.423102, , 
7316,17316,Church St & 14th St, ,37.767786,-122.428996, , 
7320,17320,3rd St & Fitzgerald Ave, ,37.723127,-122.395243, , 
7321,17321,3rd St & Warriors Way, ,37.769049,-122.389228, , 
7324,17324,3rd St & Gene Friend Way, ,37.769317,-122.389445, , 
7325,17325,Garfield St&Byxbee St , ,37.719585,-122.469953, , 
7326,17326,Garfield St & Vernon St , ,37.719594,-122.468155, , 
7334,17334,Bayshore Blvd & Blanken Ave, ,37.712226,-122.402179, , 
7366,17366,4TH ST & BERRY ST, ,37.776153,-122.393944, , 
7376,17376,Third St & Le Conte Ave, ,37.718765,-122.397456, , 
7377,17377,Third St & Marin St, ,37.748945,-122.387422, , 
7378,17378,Third St & Marin St, ,37.749097,-122.387571, , 
7381,17381,Third St & Mariposa St, ,37.764427,-122.388761, , 
7382,17382,Third St & Mariposa St., ,37.764177,-122.388945, , 
7405,17405,4th St & King St, ,37.776251,-122.393933, , 
7423,17423,Market St & Hyde St, ,37.778784,-122.414723, , 
7428,17428,Newhall St & Fairfax Ave, ,37.741406,-122.387153, , 
7431,17431,Silver Ave & Lisbon St, ,37.728606,-122.428571, , 
7447,17447,The Embarcadero & Brannan St, ,37.784547,-122.387954, , 
7448,17448,19th Ave & Winston Dr, ,37.727258,-122.475098, , 
7476,17476,Van Ness Ave & North Point St, ,37.80484,-122.425352, , 
7520,17520,Bayshore Blvd & Visitacion Ave, ,37.709523,-122.404631, , 
7554,17554,Mission St & Flournoy, ,37.706613,-122.459196, , 
7557,17557,Avenue H & 9th St, ,37.825152,-122.3698, , 
7558,17558,Avenue H & 13th St, ,37.828276,-122.371758, , 
7563,17563,McAllister St & Jones St, ,37.781166,-122.412189, , 
7568,17568,Divisadero St & Bay St, ,37.801907,-122.443331, , 
7632,17632,Mendell St & Cargo Way , ,37.743804,-122.383313, , 
7635,17635,McAllister St & Leavenworth St , ,37.780889,-122.413587, , 
7636,17636,Fillmore St & Haight St , ,37.772069,-122.430473, , 
7638,17638,Ocean Ave & Otsego Ave , ,37.723433,-122.440816, , 
7671,17671,Geneva Ave & Mission St , ,37.716419,-122.441012, , 
7677,17677,8th St & Howard, ,37.776133,-122.411606, , 
7687,17687,Parnassus Ave &4th Ave , ,37.762522,-122.460947, , 
7688,17688,513 Parnassus Ave , ,37.763299,-122.458208, , 
7719,17719,Middle Point & Acacia, ,37.737074,-122.379516, , 
7720,17720,Fulton St & 43rd Ave , ,37.771612,-122.503296, , 
7721,17721,Fulton St & Park Presidio , ,37.772834,-122.476524, , 
7727,17727,Fulton S t& 28th Ave, ,37.772474,-122.487504, , 
7728,17728,Fulton S t& 30th Ave , ,37.772375,-122.489624, , 
7729,17729,Fulton St & 40th Ave, ,37.77188,-122.50034, , 
7730,17730,Fulton St t& 43rd  Ave , ,37.771736,-122.503537, , 
7736,17736,Van Ness Ave & O'Farrell St , ,37.784907,-122.421334, , 
7737,17737,Pacific Ave & Stockton St, ,37.796734,-122.408581, , 
7755,17755,West Portal Ave&Ulloa St , ,37.740849,-122.465835, , 
7756,17756,Palou Ave & Newhall St, ,37.735162,-122.392886, , 
7758,17758,Crossover Dr & Lincoln St, ,37.765544,-122.477243, , 
7760,17760,Thornton Dr & Scotia Ave, ,37.731668,-122.399464, , 
7772,17772,Newhall St & Hudson, ,37.73997,-122.388403, , 
7787,17787,Lombard St & Gough St, ,37.800861,-122.42768, , 
7800,17800,Lombard St & Gough St, ,37.800942,-122.42807, , 
7804,17804,Ocean Ave & I-280 On Ramp, ,37.723031,-122.446932, , 
7841,17841,Mission St & Power St, ,37.746245,-122.419401, , 
7842,17842,Daly City Bart Station, ,37.706514,-122.468632, , 
7853,17853,Lincoln Way & 34th Ave , ,37.764709,-122.493413, , 
7854,17854,Geary Blvd & Arguello Blvd, ,37.781313,-122.458955, , 
7856,17856,Chestnut St & Gough St , ,37.801825,-122.428104, , 
7857,17857,Chestnut St & Gough St , ,37.801914,-122.427955, , 
7860,17860,Donahue St & Innes Ave , ,37.728895,-122.370154, , 
7862,17862,Broadway & Sansome St, ,37.798392,-122.402343, , 
7886,17886,Bayshore Blvd & Flower St , ,37.742377,-122.405609, , 
7887,17887,201 Bayshore Blvd E, ,37.744616,-122.404187, , 
7888,17888,Bayshore Blvd & Oakdale Ave , ,37.743046,-122.405402, , 
7893,17893,Ocean Ave Right of Way , ,37.731933,-122.473862, , 
7899,17899,San Bruno Ave & Harkness Ave , ,37.718043,-122.400114, , 
7900,17900,San Bruno Ave & Felton St , ,37.729912,-122.404631, , 
7908,17908,Potrero Ave & 21st St, ,37.757858,-122.406723, , 
7909,17909,Potrero Ave & 19th St , ,37.76074,-122.407019, , 
7910,17910,Potrero Ave & Mariposa St , ,37.763283,-122.407258, , 
7911,17911,Potrero Ave & Mariposa St , ,37.763132,-122.407407, , 
7912,17912,Potrero Ave & 19th St, ,37.760606,-122.407168, , 
7914,17914,Transit Center Bay B, ,37.790091,-122.395688, , 
7915,17915,Transit Center Bay C, ,37.789957,-122.395493, , 
7916,17916,Transit Center Bay D, ,37.789975,-122.395206, , 
7917,17917,Transit Center Bay E, ,37.789841,-122.395321, , 
7925,17925,D.C. Bart Parking Lot E, ,37.705969,-122.468769, , 
7940,17940,Ocean Ave & Muni Right of Way , ,37.731933,-122.473656, , 
7945,17945,Mission st & Fremont St, ,37.790261,-122.396788, , 
7948,17948,Transit Center Bay 29, ,37.790136,-122.396146, , 
7949,17949,Fremont St & Mission St , ,37.790413,-122.396513, , 
7953,17953,Geary Blvd & Masonic St , ,37.782197,-122.447034, , 
7954,17954,Geary Blvd & Fillmore St, ,37.784382,-122.432052, , 
7957,17957,Townsend St & 5 St , ,37.775646,-122.396672, , 
7959,17959,McLaren School Turnback Point, ,37.715008,-122.425047, , 
7961,17961,3rd Street & Evans Ave , ,37.742789,-122.387805, , 
7976,17976,Ulloa St & West Protal Ave , ,37.740831,-122.465812, , 
7979,17979,Moscow St & Geneva Ave , ,37.713233,-122.433557, , 
7980,17980,Moscow St t & Italy Ave, ,37.714928,-122.432308, , 
7981,17981,Moscow St & France Ave , ,37.716481,-122.43114, , 
7982,17982,Moscow St & RussiaAvet , ,37.718042,-122.42996, , 
7983,17983,Moscow S t& Braze St , ,37.721138,-122.427622, , 
7984,17984,Moscow S & Excelisor Ave, ,37.722717,-122.426454, , 
7985,17985,Moscow St & Avalon Ave , ,37.724278,-122.425285, , 
7996,17996,Irving St & 8th Ave , ,37.764038,-122.465428, , 
7999,17999,9th Ave & Irving St , ,37.763842,-122.466379, , 
8015,18015,Marketr St & Clayton St, ,37.758231,-122.443918, , 
8016,18016,Funston Ave & Irving St , ,37.764082,-122.470527, , 
8017,18017,Shoreline Access Road, ,37.816453,-122.371575, , 
8018,18018,Shoreline Access Road, ,37.816311,-122.372011, , 
8019,18019,9th St & Ave B, ,37.823031,-122.375055, , 
8020,18020,Ave M & 4th St, ,37.823025,-122.365593, , 
8021,18021,Ave H & 4th St, ,37.822117,-122.367761, , 
